[
{
"fecha": "2022-07",
"fecha_dia": "2022-07-30",
"lat": 40.385383499999996,
"lng": 0.37919966666666666,
"zona": "Carretera Estación",
"address": "Camí de Cervera",
"resource": "321-1821KBZ (Lateral)",
"matricula": "1821KBZ",
"garbage": "Mezcla de residuos municipales",
"containerType": "CONTENEDOR RSU 2.400 LATERAL",
"weight": 45.0,
"area": ""
},
{
"fecha": "2023-04",
"fecha_dia": "2023-04-11",
"lat": 40.363331,
"lng": 0.39722399999999997,
"zona": "Llandells - Estacion",
"address": "Calle Cierzo",
"resource": "320-1730KBZ (Lateral)",
"matricula": "1730KBZ",
"garbage": "Mezcla de residuos municipales",
"containerType": "CONTENEDOR RSU 2.200 LATERAL",
"weight": 20.0,
"area": "LLANDELLS"
},
{
"fecha": "2023-07",
"fecha_dia": "2023-07-03",
"lat": 40.36422133333333,
"lng": 0.4011825,
"zona": "Zona Norte 1",
"address": "",
"resource": "318-7542KBV (IVECO )",
"matricula": "7542KBV",
"garbage": "Mezcla de residuos municipales",
"containerType": "CONTENEDOR RSU 800 TRASERA HOTELES",
"weight": 110.0,
"area": ""
},
{
"fecha": "2024-03",
"fecha_dia": "2024-03-20",
"lat": 40.37078983333333,
"lng": 0.4045695,
"zona": "Zona Norte 1",
"address": "Avenida del Papa Luna",
"resource": "320-1730KBZ (Lateral)",
"matricula": "1730KBZ",
"garbage": "Mezcla de residuos municipales",
"containerType": "CONTENEDOR RSU 3.200 LATERAL",
"weight": 165.0,
"area": ""
},
{
"fecha": "2025-09",
"fecha_dia": "2025-09-22",
"lat": 40.36495166666667,
"lng": 0.384631,
"zona": "Urbanizaciones",
"address": "Avenida de Suècia",
"resource": "320-1730KBZ (Lateral)",
"matricula": "1730KBZ",
"garbage": "Mezcla de residuos municipales",
"containerType": "",
"weight": 20.0,
"area": "ATALAYAS"
},
{
"fecha": "2023-05",
"fecha_dia": "2023-05-03",
"lat": 40.37887,
"lng": 0.3880923333333334,
"zona": "Carretera Estación",
"address": "Camino de Abellers",
"resource": "320-1730KBZ (Lateral)",
"matricula": "1730KBZ",
"garbage": "Envases mezclados",
"containerType": "CONTENEDOR ENVASES 3.200 LATERAL",
"weight": 20.0,
"area": ""
},
{
"fecha": "2023-07",
"fecha_dia": "2023-07-07",
"lat": 40.369143333333334,
"lng": 0.4031791666666667,
"zona": "Zona Norte 1",
"address": "",
"resource": "318-7542KBV (IVECO )",
"matricula": "7542KBV",
"garbage": "Mezcla de residuos municipales",
"containerType": "CONTENEDOR RSU 800 TRASERA HOTELES",
"weight": 55.0,
"area": ""
},
{
"fecha": "2023-05",
"fecha_dia": "2023-05-31",
"lat": 40.39340033333334,
"lng": 0.41082616666666666,
"zona": "Zona Norte 2",
"address": "Avenida del Papa Lluna",
"resource": "318-7542KBV (IVECO )",
"matricula": "7542KBV",
"garbage": "Mezcla de residuos municipales",
"containerType": "CONTENEDOR RSU 800 TRASERA HOTELES",
"weight": 80.0,
"area": ""
},
{
"fecha": "2022-03",
"fecha_dia": "2022-03-04",
"lat": 40.401729333333336,
"lng": 0.3806248333333333,
"zona": "",
"address": "Carretera de Peñíscola a la Estación",
"resource": "320-1730KBZ (Lateral)",
"matricula": "1730KBZ",
"garbage": "Mezcla de residuos municipales",
"containerType": "CONTENEDOR RSU 3.200 LATERAL",
"weight": 35.0,
"area": ""
},
{
"fecha": "2025-03",
"fecha_dia": "2025-03-19",
"lat": 40.386964166666665,
"lng": 0.37773249999999997,
"zona": "Carretera Estación",
"address": "Camino de Santa Magdalena",
"resource": "320-1730KBZ (Lateral)",
"matricula": "1730KBZ",
"garbage": "Mezcla de residuos municipales",
"containerType": "CONTENEDOR RSU 2.400 LATERAL",
"weight": 20.0,
"area": ""
},
{
"fecha": "2022-07",
"fecha_dia": "2022-07-10",
"lat": 40.393376333333336,
"lng": 0.41081233333333333,
"zona": "Zona Norte 2",
"address": "Avenida del Papa Lluna",
"resource": "318-7542KBV (IVECO )",
"matricula": "7542KBV",
"garbage": "Mezcla de residuos municipales",
"containerType": "CONTENEDOR RSU 800 TRASERA HOTELES",
"weight": 10.0,
"area": ""
},
{
"fecha": "2024-11",
"fecha_dia": "2024-11-15",
"lat": 39.85536066666667,
"lng": -0.18594433333333335,
"zona": "",
"address": "Carretera de la Vall de uixo",
"resource": "321-1821KBZ (Lateral)",
"matricula": "1821KBZ",
"garbage": "Mezcla de residuos municipales",
"containerType": "",
"weight": 115.0,
"area": ""
},
{
"fecha": "2025-07",
"fecha_dia": "2025-07-01",
"lat": 40.3729345,
"lng": 0.4056243333333333,
"zona": "Zona Norte 1",
"address": "Avenida del Papa Luna",
"resource": "318-7542KBV (IVECO STRALIS 310)",
"matricula": "7542KBV",
"garbage": "Mezcla de residuos municipales",
"containerType": "CONTENEDOR RSU 800 TRASERA HOTELES",
"weight": 25.0,
"area": ""
},
{
"fecha": "2025-10",
"fecha_dia": "2025-10-01",
"lat": 40.3974085,
"lng": 0.4142031666666667,
"zona": "Zona Norte 2",
"address": "Carretera Vieja de Peñíscola",
"resource": "427-6998MYN (IVECO S-WAY 340 MAZZOCCHIA)",
"matricula": "6998MYN",
"garbage": "Orgánica",
"containerType": "CONTENEDOR ORGÁNICA 800l. HOTELES",
"weight": 35.0,
"area": "HOTEL PEÑISCOLA PLAZA SUITES"
},
{
"fecha": "2022-08",
"fecha_dia": "2022-08-03",
"lat": 40.393427333333335,
"lng": 0.41080916666666667,
"zona": "Zona Norte 2",
"address": "Avenida del Papa Lluna",
"resource": "318-7542KBV (IVECO )",
"matricula": "7542KBV",
"garbage": "Mezcla de residuos municipales",
"containerType": "CONTENEDOR RSU 800 TRASERA HOTELES",
"weight": 90.0,
"area": ""
},
{
"fecha": "2023-09",
"fecha_dia": "2023-09-07",
"lat": 40.366612833333335,
"lng": 0.390121,
"zona": "Urbanizaciones",
"address": "Avenida Dinamarca",
"resource": "321-1821KBZ (Lateral)",
"matricula": "1821KBZ",
"garbage": "Papel",
"containerType": "CONTENEDOR PAPEL 3.200 LATERAL",
"weight": 0.0,
"area": "ATALAYAS"
},
{
"fecha": "2024-07",
"fecha_dia": "2024-07-09",
"lat": 40.400146,
"lng": 0.414866,
"zona": "Zona Norte 2",
"address": "Carretera Vieja de Peñíscola",
"resource": "318-7542KBV (IVECO )",
"matricula": "7542KBV",
"garbage": "Mezcla de residuos municipales",
"containerType": "CONTENEDOR RSU 1.100 TRASERA",
"weight": 65.0,
"area": ""
},
{
"fecha": "2024-05",
"fecha_dia": "2024-05-08",
"lat": 40.387097499999996,
"lng": 0.407456,
"zona": "Zona Norte - Peñísmar",
"address": "Calle 19",
"resource": "321-1821KBZ (Lateral)",
"matricula": "1821KBZ",
"garbage": "Mezcla de residuos municipales",
"containerType": "CONTENEDOR RSU 3.200 LATERAL",
"weight": 5.0,
"area": ""
},
{
"fecha": "2024-03",
"fecha_dia": "2024-03-16",
"lat": 40.39676083333333,
"lng": 0.3634773333333333,
"zona": "Carretera Estación",
"address": "Carretera de Peñíscola a la Estación",
"resource": "320-1730KBZ (Lateral)",
"matricula": "1730KBZ",
"garbage": "Mezcla de residuos municipales",
"containerType": "CONTENEDOR RSU 2.200 LATERAL",
"weight": 0.0,
"area": ""
},
{
"fecha": "2023-08",
"fecha_dia": "2023-08-06",
"lat": 40.378740666666666,
"lng": 0.40660033333333334,
"zona": "Zona Norte - Peñísmar",
"address": "Avenida de Valencia",
"resource": "320-1730KBZ (Lateral)",
"matricula": "1730KBZ",
"garbage": "Mezcla de residuos municipales",
"containerType": "CONTENEDOR RSU 3.200 LATERAL",
"weight": 125.0,
"area": ""
},
{
"fecha": "2025-07",
"fecha_dia": "2025-07-14",
"lat": 40.392777833333334,
"lng": 0.40747483333333334,
"zona": "Carretera CV 141",
"address": "Carretera Vieja de Peñíscola",
"resource": "321-1821KBZ (Lateral)",
"matricula": "1821KBZ",
"garbage": "Envases mezclados",
"containerType": "CONTENEDOR ENVASES 3.200 LATERAL",
"weight": 10.0,
"area": ""
},
{
"fecha": "2024-07",
"fecha_dia": "2024-07-21",
"lat": 40.380121333333335,
"lng": 0.4072755,
"zona": "Zona Norte - Peñísmar",
"address": "Avenida de Valencia",
"resource": "320-1730KBZ (Lateral)",
"matricula": "1730KBZ",
"garbage": "Mezcla de residuos municipales",
"containerType": "CONTENEDOR RSU 3.200 LATERAL",
"weight": 0.0,
"area": ""
},
{
"fecha": "2025-10",
"fecha_dia": "2025-10-17",
"lat": 40.3846865,
"lng": 0.3800678333333333,
"zona": "Carretera Estación",
"address": "Camino de Santa Magdalena",
"resource": "320-1730KBZ (Lateral)",
"matricula": "1730KBZ",
"garbage": "Mezcla de residuos municipales",
"containerType": "",
"weight": 20.0,
"area": ""
},
{
"fecha": "2025-08",
"fecha_dia": "2025-08-28",
"lat": 40.37929666666666,
"lng": 0.40688583333333334,
"zona": "Zona Norte - Peñísmar",
"address": "Avenida de Valencia",
"resource": "321-1821KBZ (Lateral)",
"matricula": "1821KBZ",
"garbage": "Mezcla de residuos municipales",
"containerType": "CONTENEDOR RSU 3.200 LATERAL",
"weight": 460.0,
"area": ""
},
{
"fecha": "2023-07",
"fecha_dia": "2023-07-22",
"lat": 40.397349166666665,
"lng": 0.41440933333333335,
"zona": "Zona Norte 2",
"address": "Avenida del Papa Lluna",
"resource": "318-7542KBV (IVECO )",
"matricula": "7542KBV",
"garbage": "Mezcla de residuos municipales",
"containerType": "CONTENEDOR RSU 800 TRASERA HOTELES",
"weight": 145.0,
"area": ""
},
{
"fecha": "2025-12",
"fecha_dia": "2025-12-06",
"lat": 39.8648365,
"lng": -0.07317666666666667,
"zona": "",
"address": "Avenida Mediterranía",
"resource": "321-1821KBZ (Lateral)",
"matricula": "1821KBZ",
"garbage": "Envases mezclados",
"containerType": "",
"weight": 0.0,
"area": ""
},
{
"fecha": "2022-09",
"fecha_dia": "2022-09-06",
"lat": 40.38109866666667,
"lng": 0.40747550000000005,
"zona": "Zona Norte - Peñísmar",
"address": "Avenida de Valencia",
"resource": "320-1730KBZ (Lateral)",
"matricula": "1730KBZ",
"garbage": "Mezcla de residuos municipales",
"containerType": "CONTENEDOR RSU 3.200 LATERAL",
"weight": 65.0,
"area": ""
},
{
"fecha": "2022-07",
"fecha_dia": "2022-07-17",
"lat": 40.35917133333333,
"lng": 0.4032671666666667,
"zona": "Centro Suburbano",
"address": "Calle Playa",
"resource": "318-7542KBV (IVECO )",
"matricula": "7542KBV",
"garbage": "Mezcla de residuos municipales",
"containerType": "CONTENEDOR RSU 1.100 TRASERA",
"weight": 65.0,
"area": "SUBURBANO"
},
{
"fecha": "2023-11",
"fecha_dia": "2023-11-23",
"lat": 40.370706166666665,
"lng": 0.4035463333333333,
"zona": "Zona Norte 1",
"address": "Calle de Madrid",
"resource": "318-7542KBV (IVECO )",
"matricula": "7542KBV",
"garbage": "Mezcla de residuos municipales",
"containerType": "CONTENEDOR RSU 800 TRASERA HOTELES",
"weight": 70.0,
"area": ""
},
{
"fecha": "2023-07",
"fecha_dia": "2023-07-31",
"lat": 40.38420533333333,
"lng": 0.4088983333333333,
"zona": "Zona Norte - Peñísmar",
"address": "Calle de Huesca",
"resource": "321-1821KBZ (Lateral)",
"matricula": "1821KBZ",
"garbage": "Mezcla de residuos municipales",
"containerType": "CONTENEDOR RSU 3.200 LATERAL",
"weight": 0.0,
"area": ""
},
{
"fecha": "2023-01",
"fecha_dia": "2023-01-19",
"lat": 40.36061216666667,
"lng": 0.39596166666666666,
"zona": "Urbanizaciones",
"address": "Calle de los Olivos",
"resource": "320-1730KBZ (Lateral)",
"matricula": "1730KBZ",
"garbage": "Mezcla de residuos municipales",
"containerType": "CONTENEDOR RSU 2.200 LATERAL",
"weight": 20.0,
"area": "URMI"
},
{
"fecha": "2025-09",
"fecha_dia": "2025-09-18",
"lat": 40.36758833333333,
"lng": 0.3931566666666667,
"zona": "Llandells - Estacion",
"address": "Avenida de la Estació",
"resource": "321-1821KBZ (Lateral)",
"matricula": "1821KBZ",
"garbage": "Mezcla de residuos municipales",
"containerType": "CONTENEDOR RSU 2.200 LATERAL",
"weight": 90.0,
"area": ""
},
{
"fecha": "2023-01",
"fecha_dia": "2023-01-31",
"lat": 40.338001500000004,
"lng": 0.3761146666666667,
"zona": "Zona Sur",
"address": "Calle de Irta",
"resource": "320-1730KBZ (Lateral)",
"matricula": "1730KBZ",
"garbage": "Mezcla de residuos municipales",
"containerType": "CONTENEDOR RSU 2.200 LATERAL",
"weight": 20.0,
"area": ""
},
{
"fecha": "2023-10",
"fecha_dia": "2023-10-26",
"lat": 40.40014166666666,
"lng": 0.4148711666666667,
"zona": "Zona Norte 2",
"address": "Carretera Vieja de Peñíscola",
"resource": "318-7542KBV (IVECO )",
"matricula": "7542KBV",
"garbage": "Mezcla de residuos municipales",
"containerType": "CONTENEDOR RSU 1.100 TRASERA",
"weight": 40.0,
"area": ""
},
{
"fecha": "2022-08",
"fecha_dia": "2022-08-16",
"lat": 40.3649835,
"lng": 0.39667583333333334,
"zona": "Llandells - Estacion",
"address": "Calle de Don Antonio Pascual Ferrández",
"resource": "321-1821KBZ (Lateral)",
"matricula": "1821KBZ",
"garbage": "Mezcla de residuos municipales",
"containerType": "CONTENEDOR RSU 2.200 LATERAL",
"weight": 115.0,
"area": "LLANDELLS"
},
{
"fecha": "2023-03",
"fecha_dia": "2023-03-09",
"lat": 40.365871,
"lng": 0.3856085,
"zona": "Urbanizaciones",
"address": "Avenida de Irlanda",
"resource": "320-1730KBZ (Lateral)",
"matricula": "1730KBZ",
"garbage": "Mezcla de residuos municipales",
"containerType": "CONTENEDOR RSU 2.400 LATERAL",
"weight": 20.0,
"area": "ATALAYAS"
},
{
"fecha": "2025-05",
"fecha_dia": "2025-05-31",
"lat": 40.3973195,
"lng": 0.414427,
"zona": "Zona Norte 2",
"address": "Avenida del Papa Lluna",
"resource": "427-6998MYN (IVECO S-WAY 340 MAZZOCCHIA)",
"matricula": "6998MYN",
"garbage": "Mezcla de residuos municipales",
"containerType": "CONTENEDOR ORGÁNICA 800l. HOTELES",
"weight": 60.0,
"area": "HOTEL PEÑISCOLA PLAZA SUITES"
},
{
"fecha": "2024-10",
"fecha_dia": "2024-10-17",
"lat": 40.389589666666666,
"lng": 0.4099716666666666,
"zona": "Zona Norte - Peñísmar",
"address": "Calle de Proyecto N 130",
"resource": "318-7542KBV (IVECO )",
"matricula": "7542KBV",
"garbage": "Mezcla de residuos municipales",
"containerType": "CONTENEDOR RSU 800 TRASERA HOTELES",
"weight": 5.0,
"area": "HOTEL CASABLANCA"
},
{
"fecha": "2022-08",
"fecha_dia": "2022-08-02",
"lat": 40.36826816666667,
"lng": 0.38895583333333333,
"zona": "Urbanizaciones",
"address": "Urbanizacion las Atalayas",
"resource": "320-1730KBZ (Lateral)",
"matricula": "1730KBZ",
"garbage": "Mezcla de residuos municipales",
"containerType": "CONTENEDOR RSU 2.400 LATERAL",
"weight": 130.0,
"area": "ATALAYAS"
},
{
"fecha": "2022-08",
"fecha_dia": "2022-08-08",
"lat": 40.397596,
"lng": 0.41392100000000004,
"zona": "Zona Norte 2",
"address": "",
"resource": "318-7542KBV (IVECO )",
"matricula": "7542KBV",
"garbage": "Mezcla de residuos municipales",
"containerType": "CONTENEDOR RSU 800 TRASERA HOTELES",
"weight": 15.0,
"area": ""
},
{
"fecha": "2024-02",
"fecha_dia": "2024-02-25",
"lat": 39.864232666666666,
"lng": -0.07615716666666666,
"zona": "",
"address": "Calle Barques",
"resource": "321-1821KBZ (Lateral)",
"matricula": "1821KBZ",
"garbage": "Mezcla de residuos municipales",
"containerType": "",
"weight": 75.0,
"area": ""
},
{
"fecha": "2023-04",
"fecha_dia": "2023-04-18",
"lat": 40.361899,
"lng": 0.3975295,
"zona": "Llandells - Estacion",
"address": "Calle de Llandells",
"resource": "320-1730KBZ (Lateral)",
"matricula": "1730KBZ",
"garbage": "Mezcla de residuos municipales",
"containerType": "CONTENEDOR RSU 2.200 LATERAL",
"weight": 20.0,
"area": "LLANDELLS"
},
{
"fecha": "2022-07",
"fecha_dia": "2022-07-23",
"lat": 40.35875933333333,
"lng": 0.4022728333333333,
"zona": "Centro Suburbano",
"address": "Avenida de Akra Leuke",
"resource": "318-7542KBV (IVECO )",
"matricula": "7542KBV",
"garbage": "Orgánica",
"containerType": "CONTENEDOR ORGÁNICA 1.100 TRASERA",
"weight": 100.0,
"area": "SUBURBANO"
},
{
"fecha": "2022-02",
"fecha_dia": "2022-02-05",
"lat": 40.38386166666667,
"lng": 0.4065533333333333,
"zona": "Zona Norte - Peñísmar",
"address": "Avenida de Cataluña",
"resource": "320-1730KBZ (Lateral)",
"matricula": "1730KBZ",
"garbage": "Mezcla de residuos municipales",
"containerType": "CONTENEDOR RSU 3.200 LATERAL",
"weight": 75.0,
"area": ""
},
{
"fecha": "2025-07",
"fecha_dia": "2025-07-13",
"lat": 40.353337,
"lng": 0.394069,
"zona": "Urbanizaciones",
"address": "Camino de San Antonio",
"resource": "321-1821KBZ (Lateral)",
"matricula": "1821KBZ",
"garbage": "Mezcla de residuos municipales",
"containerType": "CONTENEDOR RSU 2.200 LATERAL",
"weight": 10.0,
"area": ""
},
{
"fecha": "2022-06",
"fecha_dia": "2022-06-02",
"lat": 40.39461516666667,
"lng": 0.41425733333333337,
"zona": "Zona Norte 2",
"address": "Avenida del Papa Luna",
"resource": "318-7542KBV (IVECO )",
"matricula": "7542KBV",
"garbage": "Mezcla de residuos municipales",
"containerType": "CONTENEDOR RSU 1.100 TRASERA",
"weight": 30.0,
"area": ""
},
{
"fecha": "2022-02",
"fecha_dia": "2022-02-17",
"lat": 40.365333666666665,
"lng": 0.4031821666666667,
"zona": "Zona Norte 1",
"address": "Avenida del Papa Luna",
"resource": "320-1730KBZ (Lateral)",
"matricula": "1730KBZ",
"garbage": "Mezcla de residuos municipales",
"containerType": "CONTENEDOR RSU 3.200 LATERAL",
"weight": 0.0,
"area": ""
},
{
"fecha": "2024-04",
"fecha_dia": "2024-04-11",
"lat": 40.37526166666667,
"lng": 0.38928966666666664,
"zona": "Carretera Estación",
"address": "Avenida de la Estació",
"resource": "318-7542KBV (IVECO )",
"matricula": "7542KBV",
"garbage": "Mezcla de residuos municipales",
"containerType": "CONTENEDOR RSU 1.100 TRASERA",
"weight": 10.0,
"area": ""
},
{
"fecha": "2025-10",
"fecha_dia": "2025-10-16",
"lat": 40.36187916666667,
"lng": 0.401549,
"zona": "Zona Norte 1",
"address": "Calle de Pigmalión",
"resource": "427-6998MYN (IVECO S-WAY 340 MAZZOCCHIA)",
"matricula": "6998MYN",
"garbage": "Orgánica",
"containerType": "CONTENEDOR ORGÁNICA 800l. HOTELES",
"weight": 115.0,
"area": "HOTEL PRADO"
},
{
"fecha": "2024-03",
"fecha_dia": "2024-03-10",
"lat": 40.3590375,
"lng": 0.400497,
"zona": "Centro Suburbano",
"address": "Avenida de España",
"resource": "318-7542KBV (IVECO )",
"matricula": "7542KBV",
"garbage": "Mezcla de residuos municipales",
"containerType": "CONTENEDOR RSU 1.100 TRASERA",
"weight": 65.0,
"area": "SUBURBANO"
},
{
"fecha": "2023-12",
"fecha_dia": "2023-12-22",
"lat": 40.05372583333334,
"lng": 0.05681833333333333,
"zona": "",
"address": "Calle de la Cierva",
"resource": "320-1730KBZ (Lateral)",
"matricula": "1730KBZ",
"garbage": "Mezcla de residuos municipales",
"containerType": "",
"weight": 125.0,
"area": ""
},
{
"fecha": "2022-12",
"fecha_dia": "2022-12-18",
"lat": 40.38556466666667,
"lng": 0.4081268333333333,
"zona": "Zona Norte - Peñísmar",
"address": "Avenida de Cataluña",
"resource": "320-1730KBZ (Lateral)",
"matricula": "1730KBZ",
"garbage": "Mezcla de residuos municipales",
"containerType": "CONTENEDOR RSU 3.200 LATERAL",
"weight": 0.0,
"area": ""
},
{
"fecha": "2022-04",
"fecha_dia": "2022-04-18",
"lat": 40.057007500000005,
"lng": 0.08796566666666666,
"zona": "",
"address": "Calle Termalismo",
"resource": "318-7542KBV (IVECO )",
"matricula": "7542KBV",
"garbage": "Mezcla de residuos municipales",
"containerType": "",
"weight": 115.0,
"area": ""
},
{
"fecha": "2025-08",
"fecha_dia": "2025-08-23",
"lat": 40.36046283333334,
"lng": 0.39874899999999996,
"zona": "Llandells - Estacion",
"address": "Calle de Villeneuve les Avignon",
"resource": "320-1730KBZ (Lateral)",
"matricula": "1730KBZ",
"garbage": "Mezcla de residuos municipales",
"containerType": "CONTENEDOR RSU 2.200 LATERAL",
"weight": 20.0,
"area": "LLANDELLS"
},
{
"fecha": "2025-02",
"fecha_dia": "2025-02-08",
"lat": 40.35759533333333,
"lng": 0.3985281666666667,
"zona": "Urbanizaciones",
"address": "Calle del Hort",
"resource": "320-1730KBZ (Lateral)",
"matricula": "1730KBZ",
"garbage": "Mezcla de residuos municipales",
"containerType": "CONTENEDOR RSU 2.200 LATERAL",
"weight": 0.0,
"area": ""
},
{
"fecha": "2024-04",
"fecha_dia": "2024-04-16",
"lat": 40.35574783333333,
"lng": 0.39437383333333337,
"zona": "Urbanizaciones",
"address": "Calle de Paraguay",
"resource": "320-1730KBZ (Lateral)",
"matricula": "1730KBZ",
"garbage": "Mezcla de residuos municipales",
"containerType": "CONTENEDOR RSU 2.200 LATERAL",
"weight": 160.0,
"area": "Cerromar"
},
{
"fecha": "2025-10",
"fecha_dia": "2025-10-03",
"lat": 40.37695333333333,
"lng": 0.3924956666666667,
"zona": "Carretera Estación",
"address": "Camino de Azagador",
"resource": "318-7542KBV (IVECO STRALIS 310)",
"matricula": "7542KBV",
"garbage": "Mezcla de residuos municipales",
"containerType": "CONTENEDOR RSU 800 TRASERA HOTELES",
"weight": 95.0,
"area": "CAMPING EL CID"
},
{
"fecha": "2022-09",
"fecha_dia": "2022-09-09",
"lat": 40.35924733333333,
"lng": 0.40342,
"zona": "Centro Suburbano",
"address": "Calle Playa",
"resource": "318-7542KBV (IVECO )",
"matricula": "7542KBV",
"garbage": "Mezcla de residuos municipales",
"containerType": "CONTENEDOR RSU 1.100 TRASERA",
"weight": 120.0,
"area": "SUBURBANO"
},
{
"fecha": "2023-10",
"fecha_dia": "2023-10-13",
"lat": 40.3735365,
"lng": 0.390947,
"zona": "Carretera Estación",
"address": "Puerta de Polígono",
"resource": "320-1730KBZ (Lateral)",
"matricula": "1730KBZ",
"garbage": "Mezcla de residuos municipales",
"containerType": "CONTENEDOR RSU 2.400 LATERAL",
"weight": 120.0,
"area": ""
},
{
"fecha": "2023-04",
"fecha_dia": "2023-04-20",
"lat": 40.377643,
"lng": 0.38937266666666664,
"zona": "Carretera Estación",
"address": "Camino de Peñíscola",
"resource": "320-1730KBZ (Lateral)",
"matricula": "1730KBZ",
"garbage": "Mezcla de residuos municipales",
"containerType": "CONTENEDOR RSU 2.400 LATERAL",
"weight": 20.0,
"area": ""
},
{
"fecha": "2025-11",
"fecha_dia": "2025-11-05",
"lat": 40.36351383333333,
"lng": 0.39881649999999996,
"zona": "Llandells - Estacion",
"address": "Calle de la Roca",
"resource": "321-1821KBZ (Lateral)",
"matricula": "1821KBZ",
"garbage": "Mezcla de residuos municipales",
"containerType": "CONTENEDOR RSU 2.200 LATERAL",
"weight": 155.0,
"area": "LLANDELLS"
},
{
"fecha": "2022-06",
"fecha_dia": "2022-06-02",
"lat": 40.36269033333333,
"lng": 0.398235,
"zona": "Llandells - Estacion",
"address": "Calle de Villeneuve les Avignon",
"resource": "321-1821KBZ (Lateral)",
"matricula": "1821KBZ",
"garbage": "Mezcla de residuos municipales",
"containerType": "CONTENEDOR RSU 2.200 LATERAL",
"weight": 0.0,
"area": "LLANDELLS"
},
{
"fecha": "2024-07",
"fecha_dia": "2024-07-08",
"lat": 40.3810705,
"lng": 0.4074893333333333,
"zona": "Zona Norte - Peñísmar",
"address": "Avenida de Valencia",
"resource": "321-1821KBZ (Lateral)",
"matricula": "1821KBZ",
"garbage": "Mezcla de residuos municipales",
"containerType": "CONTENEDOR RSU 3.200 LATERAL",
"weight": 5.0,
"area": ""
},
{
"fecha": "2023-08",
"fecha_dia": "2023-08-25",
"lat": 40.35580216666666,
"lng": 0.39448750000000005,
"zona": "Urbanizaciones",
"address": "Calle de Uruguay",
"resource": "321-1821KBZ (Lateral)",
"matricula": "1821KBZ",
"garbage": "Envases mezclados",
"containerType": "CONTENEDOR ENVASES 3.200 LATERAL",
"weight": 0.0,
"area": "CERRO-MAR"
},
{
"fecha": "2024-09",
"fecha_dia": "2024-09-11",
"lat": 40.385404,
"lng": 0.379166,
"zona": "Carretera Estación",
"address": "Camino de Santa Magdalena",
"resource": "321-1821KBZ (Lateral)",
"matricula": "1821KBZ",
"garbage": "Mezcla de residuos municipales",
"containerType": "CONTENEDOR RSU 2.400 LATERAL",
"weight": 0.0,
"area": ""
},
{
"fecha": "2023-11",
"fecha_dia": "2023-11-09",
"lat": 40.343072666666664,
"lng": 0.38329833333333335,
"zona": "Zona Sur",
"address": "Calle de Irta",
"resource": "320-1730KBZ (Lateral)",
"matricula": "1730KBZ",
"garbage": "Mezcla de residuos municipales",
"containerType": "CONTENEDOR RSU 2.200 LATERAL",
"weight": 25.0,
"area": ""
},
{
"fecha": "2024-10",
"fecha_dia": "2024-10-02",
"lat": 40.372998333333335,
"lng": 0.4055165,
"zona": "Zona Norte 1",
"address": "Avenida del Papa Luna",
"resource": "318-7542KBV (IVECO )",
"matricula": "7542KBV",
"garbage": "Mezcla de residuos municipales",
"containerType": "CONTENEDOR RSU 800 TRASERA HOTELES",
"weight": 75.0,
"area": ""
},
{
"fecha": "2022-07",
"fecha_dia": "2022-07-22",
"lat": 40.3869825,
"lng": 0.37776633333333337,
"zona": "Carretera Estación",
"address": "Camí de Cervera",
"resource": "321-1821KBZ (Lateral)",
"matricula": "1821KBZ",
"garbage": "Mezcla de residuos municipales",
"containerType": "CONTENEDOR RSU 2.400 LATERAL",
"weight": 75.0,
"area": ""
},
{
"fecha": "2023-06",
"fecha_dia": "2023-06-07",
"lat": 40.372043999999995,
"lng": 0.3910621666666667,
"zona": "Carretera Estación",
"address": "Puerta de Polígono",
"resource": "318-7542KBV (IVECO )",
"matricula": "7542KBV",
"garbage": "Mezcla de residuos municipales",
"containerType": "CONTENEDOR RSU 1.100 TRASERA",
"weight": 15.0,
"area": ""
},
{
"fecha": "2024-03",
"fecha_dia": "2024-03-29",
"lat": 40.363415833333335,
"lng": 0.40202266666666664,
"zona": "Zona Norte 1",
"address": "Avenida del Papa Luna",
"resource": "318-7542KBV (IVECO )",
"matricula": "7542KBV",
"garbage": "Mezcla de residuos municipales",
"containerType": "CONTENEDOR RSU 800 TRASERA HOTELES",
"weight": 15.0,
"area": ""
},
{
"fecha": "2022-11",
"fecha_dia": "2022-11-04",
"lat": 40.39790433333334,
"lng": 0.4158833333333333,
"zona": "Zona Norte 2",
"address": "Avenida del Papa Luna",
"resource": "318-7542KBV (IVECO )",
"matricula": "7542KBV",
"garbage": "Mezcla de residuos municipales",
"containerType": "CONTENEDOR RSU 1.100 TRASERA",
"weight": 120.0,
"area": ""
},
{
"fecha": "2024-10",
"fecha_dia": "2024-10-27",
"lat": 40.37761033333334,
"lng": 0.38936883333333333,
"zona": "Carretera Estación",
"address": "Camino de Peñíscola",
"resource": "320-1730KBZ (Lateral)",
"matricula": "1730KBZ",
"garbage": "Mezcla de residuos municipales",
"containerType": "CONTENEDOR RSU 2.400 LATERAL",
"weight": 0.0,
"area": ""
},
{
"fecha": "2025-06",
"fecha_dia": "2025-06-18",
"lat": 40.364223833333334,
"lng": 0.40117316666666664,
"zona": "Zona Norte 1",
"address": "",
"resource": "427-6998MYN (IVECO S-WAY 340 MAZZOCCHIA)",
"matricula": "6998MYN",
"garbage": "Mezcla de residuos municipales",
"containerType": "CONTENEDOR RSU 800 TRASERA HOTELES",
"weight": 135.0,
"area": ""
},
{
"fecha": "2024-07",
"fecha_dia": "2024-07-22",
"lat": 40.37039566666667,
"lng": 0.391982,
"zona": "Urbanizaciones",
"address": "Carretera de la Estación",
"resource": "318-7542KBV (IVECO )",
"matricula": "7542KBV",
"garbage": "Mezcla de residuos municipales",
"containerType": "CONTENEDOR RSU 1.100 TRASERA",
"weight": 45.0,
"area": ""
},
{
"fecha": "2024-05",
"fecha_dia": "2024-05-19",
"lat": 40.361302,
"lng": 0.39938833333333335,
"zona": "Llandells - Estacion",
"address": "Calle de la Roca",
"resource": "318-7542KBV (IVECO )",
"matricula": "7542KBV",
"garbage": "Mezcla de residuos municipales",
"containerType": "CONTENEDOR RSU 800 TRASERA HOTELES",
"weight": 50.0,
"area": "Llandells"
},
{
"fecha": "2023-07",
"fecha_dia": "2023-07-15",
"lat": 40.390713166666664,
"lng": 0.3954358333333333,
"zona": "",
"address": "Carretera de Peñíscola a la Estación",
"resource": "321-1821KBZ (Lateral)",
"matricula": "1821KBZ",
"garbage": "Mezcla de residuos municipales",
"containerType": "CONTENEDOR RSU 2.200 LATERAL",
"weight": 0.0,
"area": ""
},
{
"fecha": "2023-03",
"fecha_dia": "2023-03-11",
"lat": 40.36254566666666,
"lng": 0.3989836666666667,
"zona": "Llandells - Estacion",
"address": "Calle Maestrat",
"resource": "320-1730KBZ (Lateral)",
"matricula": "1730KBZ",
"garbage": "Mezcla de residuos municipales",
"containerType": "CONTENEDOR RSU 2.200 LATERAL",
"weight": 0.0,
"area": "LLANDELLS"
},
{
"fecha": "2022-08",
"fecha_dia": "2022-08-01",
"lat": 40.365202833333335,
"lng": 0.39476133333333335,
"zona": "Llandells - Estacion",
"address": "Avenida de la Estació",
"resource": "318-7542KBV (IVECO )",
"matricula": "7542KBV",
"garbage": "Mezcla de residuos municipales",
"containerType": "CONTENEDOR RSU 800 TRASERA HOTELES",
"weight": 30.0,
"area": ""
},
{
"fecha": "2024-02",
"fecha_dia": "2024-02-25",
"lat": 40.380327,
"lng": 0.40731083333333334,
"zona": "Zona Norte - Peñísmar",
"address": "Avenida de Valencia",
"resource": "320-1730KBZ (Lateral)",
"matricula": "1730KBZ",
"garbage": "Mezcla de residuos municipales",
"containerType": "CONTENEDOR RSU 3.200 LATERAL",
"weight": 0.0,
"area": ""
},
{
"fecha": "2025-09",
"fecha_dia": "2025-09-01",
"lat": 40.37651533333334,
"lng": 0.38864683333333333,
"zona": "Carretera Estación",
"address": "Avenida de la Estació",
"resource": "321-1821KBZ (Lateral)",
"matricula": "1821KBZ",
"garbage": "Envases mezclados",
"containerType": "CONTENEDOR ENVASES 3.200 LATERAL",
"weight": 305.0,
"area": ""
},
{
"fecha": "2024-07",
"fecha_dia": "2024-07-17",
"lat": 40.3653385,
"lng": 0.4032035,
"zona": "Zona Norte 1",
"address": "Avenida del Papa Luna",
"resource": "320-1730KBZ (Lateral)",
"matricula": "1730KBZ",
"garbage": "Mezcla de residuos municipales",
"containerType": "CONTENEDOR RSU 3.200 LATERAL",
"weight": 0.0,
"area": ""
},
{
"fecha": "2025-12",
"fecha_dia": "2025-12-02",
"lat": 40.053769333333335,
"lng": 0.0568015,
"zona": "",
"address": "Calle de Galileo",
"resource": "310-7809JZX (NISSAN)",
"matricula": "7809JZX",
"garbage": "Mezcla de residuos municipales",
"containerType": "",
"weight": 0.0,
"area": ""
},
{
"fecha": "2023-09",
"fecha_dia": "2023-09-29",
"lat": 40.36739166666667,
"lng": 0.38804533333333335,
"zona": "Urbanizaciones",
"address": "Avenida de Irlanda",
"resource": "320-1730KBZ (Lateral)",
"matricula": "1730KBZ",
"garbage": "Mezcla de residuos municipales",
"containerType": "CONTENEDOR RSU 2.400 LATERAL",
"weight": 0.0,
"area": "ATALAYAS"
},
{
"fecha": "2024-03",
"fecha_dia": "2024-03-09",
"lat": 40.36126383333333,
"lng": 0.3967815,
"zona": "Llandells - Estacion",
"address": "Avenida de la Estació",
"resource": "318-7542KBV (IVECO )",
"matricula": "7542KBV",
"garbage": "Mezcla de residuos municipales",
"containerType": "CONTENEDOR RSU 3.200 LATERAL",
"weight": 35.0,
"area": ""
},
{
"fecha": "2023-09",
"fecha_dia": "2023-09-29",
"lat": 40.35916483333333,
"lng": 0.40329383333333335,
"zona": "Centro Suburbano",
"address": "Calle Playa",
"resource": "318-7542KBV (IVECO )",
"matricula": "7542KBV",
"garbage": "Mezcla de residuos municipales",
"containerType": "CONTENEDOR RSU 1.100 TRASERA",
"weight": 30.0,
"area": "SUBURBANO"
},
{
"fecha": "2024-03",
"fecha_dia": "2024-03-10",
"lat": 40.36126683333334,
"lng": 0.39788766666666664,
"zona": "Llandells - Estacion",
"address": "Calle de Don Antonio Pascual Ferrández",
"resource": "321-1821KBZ (Lateral)",
"matricula": "1821KBZ",
"garbage": "Mezcla de residuos municipales",
"containerType": "CONTENEDOR RSU 2.200 LATERAL",
"weight": 70.0,
"area": "Llandells"
},
{
"fecha": "2025-07",
"fecha_dia": "2025-07-17",
"lat": 40.36182083333333,
"lng": 0.40121249999999997,
"zona": "",
"address": "Calle de Pigmalión",
"resource": "321-1821KBZ (Lateral)",
"matricula": "1821KBZ",
"garbage": "Papel",
"containerType": "CONTENEDOR PAPEL 3.200 LATERAL",
"weight": 10.0,
"area": "LLANDELLS"
},
{
"fecha": "2024-08",
"fecha_dia": "2024-08-28",
"lat": 40.39373,
"lng": 0.3848993333333333,
"zona": "",
"address": "Camí del Barranc de Moles",
"resource": "321-1821KBZ (Lateral)",
"matricula": "1821KBZ",
"garbage": "Mezcla de residuos municipales",
"containerType": "CONTENEDOR RSU 2.200 LATERAL",
"weight": 5.0,
"area": ""
},
{
"fecha": "2022-09",
"fecha_dia": "2022-09-27",
"lat": 40.351955833333335,
"lng": 0.387564,
"zona": "Zona Sur",
"address": "Avenida Ermita San Antonio",
"resource": "320-1730KBZ (Lateral)",
"matricula": "1730KBZ",
"garbage": "Mezcla de residuos municipales",
"containerType": "CONTENEDOR RSU 3.200 LATERAL",
"weight": 0.0,
"area": ""
},
{
"fecha": "2022-04",
"fecha_dia": "2022-04-17",
"lat": 40.3808005,
"lng": 0.4058646666666667,
"zona": "Zona Norte - Peñísmar",
"address": "Calle de Alicante",
"resource": "321-1821KBZ (Lateral)",
"matricula": "1821KBZ",
"garbage": "Mezcla de residuos municipales",
"containerType": "CONTENEDOR RSU 3.200 LATERAL",
"weight": 0.0,
"area": ""
},
{
"fecha": "2022-04",
"fecha_dia": "2022-04-06",
"lat": 40.363723,
"lng": 0.40220249999999996,
"zona": "Zona Norte 1",
"address": "",
"resource": "318-7542KBV (IVECO )",
"matricula": "7542KBV",
"garbage": "Mezcla de residuos municipales",
"containerType": "CONTENEDOR RSU 800 TRASERA HOTELES",
"weight": 20.0,
"area": ""
},
{
"fecha": "2022-08",
"fecha_dia": "2022-08-24",
"lat": 40.36910866666666,
"lng": 0.4031041666666667,
"zona": "Zona Norte 1",
"address": "",
"resource": "318-7542KBV (IVECO )",
"matricula": "7542KBV",
"garbage": "Mezcla de residuos municipales",
"containerType": "CONTENEDOR RSU 800 TRASERA HOTELES",
"weight": 35.0,
"area": ""
},
{
"fecha": "2025-06",
"fecha_dia": "2025-06-22",
"lat": 40.37612633333333,
"lng": 0.4067195,
"zona": "Zona Norte 1",
"address": "Avenida del Papa Luna",
"resource": "427-6998MYN (IVECO S-WAY 340 MAZZOCCHIA)",
"matricula": "6998MYN",
"garbage": "Orgánica",
"containerType": "CONTENEDOR ORGÁNICA 800l. HOTELES",
"weight": 30.0,
"area": ""
},
{
"fecha": "2022-07",
"fecha_dia": "2022-07-11",
"lat": 40.384704166666666,
"lng": 0.3818115,
"zona": "Carretera Estación",
"address": "Carretera de Peñíscola a la Estación",
"resource": "318-7542KBV (IVECO )",
"matricula": "7542KBV",
"garbage": "Mezcla de residuos municipales",
"containerType": "CONTENEDOR RSU 1.100 TRASERA",
"weight": 130.0,
"area": ""
},
{
"fecha": "2024-04",
"fecha_dia": "2024-04-28",
"lat": 40.3907395,
"lng": 0.4108948333333334,
"zona": "Zona Norte - Peñísmar",
"address": "Calle Proyecto 19",
"resource": "320-1730KBZ (Lateral)",
"matricula": "1730KBZ",
"garbage": "Mezcla de residuos municipales",
"containerType": "CONTENEDOR RSU 2.200 LATERAL",
"weight": 250.0,
"area": ""
},
{
"fecha": "2023-09",
"fecha_dia": "2023-09-04",
"lat": 40.341808,
"lng": 0.37737,
"zona": "Zona Sur",
"address": "Avenida de los Arborcers",
"resource": "321-1821KBZ (Lateral)",
"matricula": "1821KBZ",
"garbage": "Envases mezclados",
"containerType": "CONTENEDOR ENVASES 3.200 LATERAL",
"weight": 0.0,
"area": ""
},
{
"fecha": "2024-02",
"fecha_dia": "2024-02-03",
"lat": 40.35908633333334,
"lng": 0.40325683333333334,
"zona": "Centro Suburbano",
"address": "Calle Playa",
"resource": "318-7542KBV (IVECO )",
"matricula": "7542KBV",
"garbage": "Mezcla de residuos municipales",
"containerType": "CONTENEDOR RSU 1.100 TRASERA",
"weight": 65.0,
"area": "SUBURBANO"
},
{
"fecha": "2024-02",
"fecha_dia": "2024-02-04",
"lat": 40.39794766666667,
"lng": 0.38889233333333334,
"zona": "",
"address": "Carretera de Peñíscola a la Estación",
"resource": "320-1730KBZ (Lateral)",
"matricula": "1730KBZ",
"garbage": "Mezcla de residuos municipales",
"containerType": "CONTENEDOR RSU 2.200 LATERAL",
"weight": 0.0,
"area": ""
},
{
"fecha": "2024-01",
"fecha_dia": "2024-01-16",
"lat": 40.338907166666665,
"lng": 0.37758483333333337,
"zona": "Zona Sur",
"address": "Calle de Irta",
"resource": "321-1821KBZ (Lateral)",
"matricula": "1821KBZ",
"garbage": "Mezcla de residuos municipales",
"containerType": "CONTENEDOR RSU 2.200 LATERAL",
"weight": 0.0,
"area": ""
},
{
"fecha": "2022-11",
"fecha_dia": "2022-11-08",
"lat": 40.34446666666667,
"lng": 0.38517416666666665,
"zona": "Zona Sur",
"address": "Calle de Irta",
"resource": "320-1730KBZ (Lateral)",
"matricula": "1730KBZ",
"garbage": "Mezcla de residuos municipales",
"containerType": "",
"weight": 585.0,
"area": ""
},
{
"fecha": "2025-04",
"fecha_dia": "2025-04-16",
"lat": 40.37610233333333,
"lng": 0.406671,
"zona": "Zona Norte 1",
"address": "Avenida del Papa Luna",
"resource": "427-6998MYN (IVECO S-WAY 340 MAZZOCCHIA)",
"matricula": "6998MYN",
"garbage": "Orgánica",
"containerType": "CONTENEDOR ORGÁNICA 800l. HOTELES",
"weight": 105.0,
"area": "HOTEL ACUAZUL"
},
{
"fecha": "2024-12",
"fecha_dia": "2024-12-19",
"lat": 39.867199,
"lng": -0.07456633333333333,
"zona": "",
"address": "Calle de Migjorn",
"resource": "321-1821KBZ (Lateral)",
"matricula": "1821KBZ",
"garbage": "Mezcla de residuos municipales",
"containerType": "",
"weight": 5.0,
"area": ""
},
{
"fecha": "2023-12",
"fecha_dia": "2023-12-13",
"lat": 40.335182833333334,
"lng": 0.3644478333333333,
"zona": "Zona Sur",
"address": "Calle de Vinaròs",
"resource": "321-1821KBZ (Lateral)",
"matricula": "1821KBZ",
"garbage": "Mezcla de residuos municipales",
"containerType": "",
"weight": 0.0,
"area": "FONT NOVA"
},
{
"fecha": "2023-11",
"fecha_dia": "2023-11-04",
"lat": 40.359185333333336,
"lng": 0.3942451666666667,
"zona": "Urbanizaciones",
"address": "Calle de la Cova",
"resource": "321-1821KBZ (Lateral)",
"matricula": "1821KBZ",
"garbage": "Mezcla de residuos municipales",
"containerType": "CONTENEDOR RSU 2.400 LATERAL",
"weight": 0.0,
"area": "URMI"
},
{
"fecha": "2025-09",
"fecha_dia": "2025-09-10",
"lat": 40.39046716666667,
"lng": 0.4106465,
"zona": "Zona Norte - Peñísmar",
"address": "Calle Proyecto 19",
"resource": "321-1821KBZ (Lateral)",
"matricula": "1821KBZ",
"garbage": "Mezcla de residuos municipales",
"containerType": "CONTENEDOR RSU 2.200 LATERAL",
"weight": 275.0,
"area": ""
},
{
"fecha": "2025-06",
"fecha_dia": "2025-06-27",
"lat": 40.35827866666667,
"lng": 0.4051838333333333,
"zona": "Centro Suburbano",
"address": "Calle de Levante",
"resource": "320-1730KBZ (Lateral)",
"matricula": "1730KBZ",
"garbage": "Mezcla de residuos municipales",
"containerType": "CONTENEDOR RSU 2.200 LATERAL",
"weight": 0.0,
"area": "SUBURBANO"
},
{
"fecha": "2025-08",
"fecha_dia": "2025-08-15",
"lat": 40.3996325,
"lng": 0.36869416666666666,
"zona": "Carretera Estación",
"address": "Puerta de Polígono",
"resource": "321-1821KBZ (Lateral)",
"matricula": "1821KBZ",
"garbage": "Mezcla de residuos municipales",
"containerType": "CONTENEDOR RSU 2.200 LATERAL",
"weight": 0.0,
"area": ""
},
{
"fecha": "2024-08",
"fecha_dia": "2024-08-02",
"lat": 40.3684095,
"lng": 0.39307149999999996,
"zona": "Urbanizaciones",
"address": "Calle Donosti",
"resource": "318-7542KBV (IVECO )",
"matricula": "7542KBV",
"garbage": "Mezcla de residuos municipales",
"containerType": "CONTENEDOR RSU 1.100 TRASERA",
"weight": 50.0,
"area": ""
},
{
"fecha": "2024-08",
"fecha_dia": "2024-08-01",
"lat": 40.35914683333333,
"lng": 0.4032485,
"zona": "Centro Suburbano",
"address": "Calle Playa",
"resource": "318-7542KBV (IVECO )",
"matricula": "7542KBV",
"garbage": "Mezcla de residuos municipales",
"containerType": "CONTENEDOR RSU 1.100 TRASERA",
"weight": 50.0,
"area": "SUBURBANO"
},
{
"fecha": "2025-08",
"fecha_dia": "2025-08-12",
"lat": 40.372778000000004,
"lng": 0.40542316666666667,
"zona": "Zona Norte 1",
"address": "Avenida del Papa Luna",
"resource": "318-7542KBV (IVECO STRALIS 310)",
"matricula": "7542KBV",
"garbage": "Mezcla de residuos municipales",
"containerType": "CONTENEDOR RSU 800 TRASERA HOTELES",
"weight": 45.0,
"area": ""
},
{
"fecha": "2023-08",
"fecha_dia": "2023-08-06",
"lat": 40.35918016666667,
"lng": 0.40465999999999996,
"zona": "Centro Suburbano",
"address": "Calle del Molino",
"resource": "318-7542KBV (IVECO )",
"matricula": "7542KBV",
"garbage": "Mezcla de residuos municipales",
"containerType": "CONTENEDOR RSU 1.100 TRASERA",
"weight": 60.0,
"area": "SUBURBANO"
},
{
"fecha": "2024-01",
"fecha_dia": "2024-01-16",
"lat": 40.36224466666667,
"lng": 0.40043616666666665,
"zona": "Llandells - Estacion",
"address": "Calle del Mestre Bayarri",
"resource": "321-1821KBZ (Lateral)",
"matricula": "1821KBZ",
"garbage": "Mezcla de residuos municipales",
"containerType": "CONTENEDOR RSU 2.200 LATERAL",
"weight": 45.0,
"area": "Llandells"
},
{
"fecha": "2023-09",
"fecha_dia": "2023-09-13",
"lat": 40.39338133333333,
"lng": 0.410811,
"zona": "Zona Norte 2",
"address": "Avenida del Papa Lluna",
"resource": "318-7542KBV (IVECO )",
"matricula": "7542KBV",
"garbage": "Mezcla de residuos municipales",
"containerType": "CONTENEDOR RSU 800 TRASERA HOTELES",
"weight": 75.0,
"area": ""
},
{
"fecha": "2022-06",
"fecha_dia": "2022-06-25",
"lat": 40.362221999999996,
"lng": 0.39907366666666666,
"zona": "Llandells - Estacion",
"address": "Calle de la Roca",
"resource": "321-1821KBZ (Lateral)",
"matricula": "1821KBZ",
"garbage": "Mezcla de residuos municipales",
"containerType": "CONTENEDOR RSU 2.200 LATERAL",
"weight": 0.0,
"area": "LLANDELLS"
},
{
"fecha": "2025-08",
"fecha_dia": "2025-08-29",
"lat": 40.361867833333335,
"lng": 0.4015488333333333,
"zona": "Zona Norte 1",
"address": "Calle de Pigmalión",
"resource": "427-6998MYN (IVECO S-WAY 340 MAZZOCCHIA)",
"matricula": "6998MYN",
"garbage": "Envases mezclados",
"containerType": "CONTENEDOR ENVASES 800l. HOTELES",
"weight": 30.0,
"area": "HOTEL PRADO"
},
{
"fecha": "2024-09",
"fecha_dia": "2024-09-12",
"lat": 40.39961783333333,
"lng": 0.4002865,
"zona": "",
"address": "",
"resource": "321-1821KBZ (Lateral)",
"matricula": "1821KBZ",
"garbage": "Mezcla de residuos municipales",
"containerType": "CONTENEDOR RSU 2.400 LATERAL",
"weight": 5.0,
"area": ""
},
{
"fecha": "2025-06",
"fecha_dia": "2025-06-16",
"lat": 40.3973025,
"lng": 0.41442683333333336,
"zona": "Zona Norte 2",
"address": "Avenida del Papa Lluna",
"resource": "427-6998MYN (IVECO S-WAY 340 MAZZOCCHIA)",
"matricula": "6998MYN",
"garbage": "Mezcla de residuos municipales",
"containerType": "CONTENEDOR RSU 800 TRASERA HOTELES",
"weight": 40.0,
"area": "HOTEL PEÑISCOLA PLAZA SUITES"
},
{
"fecha": "2022-09",
"fecha_dia": "2022-09-09",
"lat": 40.38176933333333,
"lng": 0.38448933333333335,
"zona": "Carretera Estación",
"address": "Urbanización de los Olivos",
"resource": "320-1730KBZ (Lateral)",
"matricula": "1730KBZ",
"garbage": "Mezcla de residuos municipales",
"containerType": "CONTENEDOR RSU 3.200 LATERAL",
"weight": 0.0,
"area": ""
},
{
"fecha": "2024-03",
"fecha_dia": "2024-03-14",
"lat": 40.35911683333333,
"lng": 0.403374,
"zona": "Centro Suburbano",
"address": "Calle Playa",
"resource": "318-7542KBV (IVECO )",
"matricula": "7542KBV",
"garbage": "Mezcla de residuos municipales",
"containerType": "CONTENEDOR RSU 1.100 TRASERA",
"weight": 40.0,
"area": "SUBURBANO"
},
{
"fecha": "2025-08",
"fecha_dia": "2025-08-15",
"lat": 40.373006000000004,
"lng": 0.4055821666666667,
"zona": "Zona Norte 1",
"address": "Avenida del Papa Luna",
"resource": "318-7542KBV (IVECO STRALIS 310)",
"matricula": "7542KBV",
"garbage": "Mezcla de residuos municipales",
"containerType": "CONTENEDOR RSU 800 TRASERA HOTELES",
"weight": 60.0,
"area": ""
},
{
"fecha": "2025-11",
"fecha_dia": "2025-11-21",
"lat": 40.362649499999996,
"lng": 0.3961115,
"zona": "Llandells - Estacion",
"address": "Avenida de la Estació",
"resource": "321-1821KBZ (Lateral)",
"matricula": "1821KBZ",
"garbage": "Mezcla de residuos municipales",
"containerType": "CONTENEDOR RSU 3.200 LATERAL",
"weight": 470.0,
"area": ""
},
{
"fecha": "2023-09",
"fecha_dia": "2023-09-23",
"lat": 40.36950683333334,
"lng": 0.3923273333333333,
"zona": "Urbanizaciones",
"address": "Carretera de la Estación",
"resource": "318-7542KBV (IVECO )",
"matricula": "7542KBV",
"garbage": "Mezcla de residuos municipales",
"containerType": "CONTENEDOR RSU 1.100 TRASERA",
"weight": 80.0,
"area": ""
},
{
"fecha": "2022-08",
"fecha_dia": "2022-08-26",
"lat": 40.38147383333333,
"lng": 0.40769316666666666,
"zona": "Zona Norte - Peñísmar",
"address": "Avenida de Valencia",
"resource": "321-1821KBZ (Lateral)",
"matricula": "1821KBZ",
"garbage": "Envases mezclados",
"containerType": "CONTENEDOR ENVASES 3.200 LATERAL",
"weight": 40.0,
"area": ""
},
{
"fecha": "2024-09",
"fecha_dia": "2024-09-16",
"lat": 40.37675166666667,
"lng": 0.40702316666666666,
"zona": "Zona Norte 1",
"address": "Avenida del Papa Luna",
"resource": "321-1821KBZ (Lateral)",
"matricula": "1821KBZ",
"garbage": "Mezcla de residuos municipales",
"containerType": "CONTENEDOR RSU 3.200 LATERAL",
"weight": 115.0,
"area": ""
},
{
"fecha": "2022-07",
"fecha_dia": "2022-07-07",
"lat": 40.37299983333333,
"lng": 0.4055396666666667,
"zona": "Zona Norte 1",
"address": "Avenida del Papa Luna",
"resource": "318-7542KBV (IVECO )",
"matricula": "7542KBV",
"garbage": "Mezcla de residuos municipales",
"containerType": "CONTENEDOR RSU 800 TRASERA HOTELES",
"weight": 40.0,
"area": ""
},
{
"fecha": "2023-08",
"fecha_dia": "2023-08-16",
"lat": 40.335815333333336,
"lng": 0.37353966666666666,
"zona": "Zona Sur",
"address": "Avenida Mas del Señor",
"resource": "321-1821KBZ (Lateral)",
"matricula": "1821KBZ",
"garbage": "Mezcla de residuos municipales",
"containerType": "CONTENEDOR RSU 2.200 LATERAL",
"weight": 0.0,
"area": ""
},
{
"fecha": "2022-06",
"fecha_dia": "2022-06-11",
"lat": 40.35910916666667,
"lng": 0.3936598333333333,
"zona": "Urbanizaciones",
"address": "Calle de la Cova",
"resource": "321-1821KBZ (Lateral)",
"matricula": "1821KBZ",
"garbage": "Envases mezclados",
"containerType": "",
"weight": 0.0,
"area": "URMI"
},
{
"fecha": "2022-12",
"fecha_dia": "2022-12-06",
"lat": 40.389528000000006,
"lng": 0.37498566666666666,
"zona": "Carretera Estación",
"address": "Calle de Corvera del Maestre",
"resource": "320-1730KBZ (Lateral)",
"matricula": "1730KBZ",
"garbage": "Mezcla de residuos municipales",
"containerType": "CONTENEDOR RSU 2.400 LATERAL",
"weight": 0.0,
"area": ""
},
{
"fecha": "2024-04",
"fecha_dia": "2024-04-01",
"lat": 40.36872766666667,
"lng": 0.39622066666666667,
"zona": "Llandells - Estacion",
"address": "Camino de la Raya del Término de Benicarló-Peñíscola",
"resource": "320-1730KBZ (Lateral)",
"matricula": "1730KBZ",
"garbage": "Mezcla de residuos municipales",
"containerType": "CONTENEDOR RSU 2.200 LATERAL",
"weight": 125.0,
"area": ""
},
{
"fecha": "2023-11",
"fecha_dia": "2023-11-19",
"lat": 40.353433833333334,
"lng": 0.39529733333333333,
"zona": "Urbanizaciones",
"address": "Calle de Irta",
"resource": "320-1730KBZ (Lateral)",
"matricula": "1730KBZ",
"garbage": "Mezcla de residuos municipales",
"containerType": "CONTENEDOR RSU 2.200 LATERAL",
"weight": 0.0,
"area": ""
},
{
"fecha": "2024-07",
"fecha_dia": "2024-07-20",
"lat": 40.3591995,
"lng": 0.40461050000000004,
"zona": "Centro Suburbano",
"address": "Calle del Molino",
"resource": "318-7542KBV (IVECO )",
"matricula": "7542KBV",
"garbage": "Mezcla de residuos municipales",
"containerType": "CONTENEDOR RSU 1.100 TRASERA",
"weight": 60.0,
"area": "SUBURBANO"
},
{
"fecha": "2022-07",
"fecha_dia": "2022-07-14",
"lat": 40.378518,
"lng": 0.38767866666666667,
"zona": "Carretera Estación",
"address": "Avenida de la Estación",
"resource": "318-7542KBV (IVECO )",
"matricula": "7542KBV",
"garbage": "Mezcla de residuos municipales",
"containerType": "CONTENEDOR RSU 1.100 TRASERA",
"weight": 105.0,
"area": ""
},
{
"fecha": "2023-05",
"fecha_dia": "2023-05-23",
"lat": 40.340877666666664,
"lng": 0.38046583333333334,
"zona": "Zona Sur",
"address": "Calle de Irta",
"resource": "320-1730KBZ (Lateral)",
"matricula": "1730KBZ",
"garbage": "Mezcla de residuos municipales",
"containerType": "CONTENEDOR RSU 2.200 LATERAL",
"weight": 20.0,
"area": ""
},
{
"fecha": "2022-10",
"fecha_dia": "2022-10-31",
"lat": 40.35916666666667,
"lng": 0.40328616666666667,
"zona": "Centro Suburbano",
"address": "Calle Playa",
"resource": "318-7542KBV (IVECO )",
"matricula": "7542KBV",
"garbage": "Orgánica",
"containerType": "CONTENEDOR ORGÁNICA 1.100 TRASERA",
"weight": 100.0,
"area": "SUBURBANO"
},
{
"fecha": "2025-09",
"fecha_dia": "2025-09-24",
"lat": 40.39729933333333,
"lng": 0.41437399999999996,
"zona": "Zona Norte 2",
"address": "Avenida del Papa Lluna",
"resource": "427-6998MYN (IVECO S-WAY 340 MAZZOCCHIA)",
"matricula": "6998MYN",
"garbage": "Orgánica",
"containerType": "CONTENEDOR ORGÁNICA 800l. HOTELES",
"weight": 175.0,
"area": "HOTEL PEÑISCOLA PLAZA SUITES"
},
{
"fecha": "2022-07",
"fecha_dia": "2022-07-24",
"lat": 40.3642155,
"lng": 0.40120283333333334,
"zona": "Zona Norte 1",
"address": "",
"resource": "318-7542KBV (IVECO )",
"matricula": "7542KBV",
"garbage": "Mezcla de residuos municipales",
"containerType": "CONTENEDOR RSU 800 TRASERA HOTELES",
"weight": 30.0,
"area": ""
},
{
"fecha": "2023-10",
"fecha_dia": "2023-10-29",
"lat": 40.36359183333333,
"lng": 0.39543616666666664,
"zona": "Llandells - Estacion",
"address": "Avenida de la Estació",
"resource": "321-1821KBZ (Lateral)",
"matricula": "1821KBZ",
"garbage": "Mezcla de residuos municipales",
"containerType": "CONTENEDOR RSU 3.200 LATERAL",
"weight": 20.0,
"area": ""
},
{
"fecha": "2022-08",
"fecha_dia": "2022-08-15",
"lat": 40.366433,
"lng": 0.4034311666666667,
"zona": "Zona Norte 1",
"address": "Avenida del Papa Luna",
"resource": "320-1730KBZ (Lateral)",
"matricula": "1730KBZ",
"garbage": "Mezcla de residuos municipales",
"containerType": "CONTENEDOR RSU 3.200 LATERAL",
"weight": 0.0,
"area": ""
},
{
"fecha": "2024-01",
"fecha_dia": "2024-01-25",
"lat": 40.358776,
"lng": 0.40225716666666667,
"zona": "Centro Suburbano",
"address": "Avenida de Akra Leuke",
"resource": "318-7542KBV (IVECO )",
"matricula": "7542KBV",
"garbage": "Mezcla de residuos municipales",
"containerType": "CONTENEDOR RSU 1.100 TRASERA",
"weight": 40.0,
"area": "SUBURBANO"
},
{
"fecha": "2024-11",
"fecha_dia": "2024-11-16",
"lat": 39.886024,
"lng": -0.080298,
"zona": "",
"address": "Calle de Europa",
"resource": "321-1821KBZ (Lateral)",
"matricula": "1821KBZ",
"garbage": "Mezcla de residuos municipales",
"containerType": "",
"weight": 5.0,
"area": ""
},
{
"fecha": "2024-01",
"fecha_dia": "2024-01-21",
"lat": 40.39119816666666,
"lng": 0.41140516666666666,
"zona": "Zona Norte - Peñísmar",
"address": "Calle Proyecto 19",
"resource": "320-1730KBZ (Lateral)",
"matricula": "1730KBZ",
"garbage": "Mezcla de residuos municipales",
"containerType": "CONTENEDOR RSU 3.200 LATERAL",
"weight": 0.0,
"area": ""
},
{
"fecha": "2022-10",
"fecha_dia": "2022-10-12",
"lat": 40.36158666666667,
"lng": 0.3832123333333334,
"zona": "Urbanizaciones",
"address": "Avenida Noruega",
"resource": "320-1730KBZ (Lateral)",
"matricula": "1730KBZ",
"garbage": "Papel",
"containerType": "",
"weight": 0.0,
"area": "ATALAYAS"
},
{
"fecha": "2023-12",
"fecha_dia": "2023-12-07",
"lat": 40.35907733333333,
"lng": 0.40049783333333333,
"zona": "Centro Suburbano",
"address": "Avenida de España",
"resource": "318-7542KBV (IVECO )",
"matricula": "7542KBV",
"garbage": "Mezcla de residuos municipales",
"containerType": "CONTENEDOR RSU 1.100 TRASERA",
"weight": 15.0,
"area": "SUBURBANO"
},
{
"fecha": "2023-09",
"fecha_dia": "2023-09-10",
"lat": 40.35923433333333,
"lng": 0.3983423333333333,
"zona": "Llandells - Estacion",
"address": "Avenida de la Estació",
"resource": "321-1821KBZ (Lateral)",
"matricula": "1821KBZ",
"garbage": "Mezcla de residuos municipales",
"containerType": "CONTENEDOR RSU 3.200 LATERAL",
"weight": 0.0,
"area": ""
},
{
"fecha": "2023-03",
"fecha_dia": "2023-03-08",
"lat": 40.37611316666666,
"lng": 0.4067191666666667,
"zona": "Zona Norte 1",
"address": "Avenida del Papa Luna",
"resource": "318-7542KBV (IVECO )",
"matricula": "7542KBV",
"garbage": "Mezcla de residuos municipales",
"containerType": "CONTENEDOR RSU 800 TRASERA HOTELES",
"weight": 30.0,
"area": ""
},
{
"fecha": "2024-08",
"fecha_dia": "2024-08-16",
"lat": 40.39699216666667,
"lng": 0.41269183333333337,
"zona": "Zona Norte 2",
"address": "Carretera Vieja de Peñíscola",
"resource": "318-7542KBV (IVECO )",
"matricula": "7542KBV",
"garbage": "Mezcla de residuos municipales",
"containerType": "CONTENEDOR RSU 800 TRASERA HOTELES",
"weight": 40.0,
"area": ""
},
{
"fecha": "2023-09",
"fecha_dia": "2023-09-17",
"lat": 40.38533483333333,
"lng": 0.40800366666666665,
"zona": "Zona Norte - Peñísmar",
"address": "Avenida de Cataluña",
"resource": "321-1821KBZ (Lateral)",
"matricula": "1821KBZ",
"garbage": "Mezcla de residuos municipales",
"containerType": "CONTENEDOR RSU 3.200 LATERAL",
"weight": 0.0,
"area": ""
},
{
"fecha": "2025-07",
"fecha_dia": "2025-07-19",
"lat": 40.351943166666665,
"lng": 0.387573,
"zona": "Zona Sur",
"address": "Avenida Ermita San Antonio",
"resource": "321-1821KBZ (Lateral)",
"matricula": "1821KBZ",
"garbage": "Mezcla de residuos municipales",
"containerType": "CONTENEDOR RSU 3.200 LATERAL",
"weight": 10.0,
"area": ""
},
{
"fecha": "2022-12",
"fecha_dia": "2022-12-30",
"lat": 40.35122066666667,
"lng": 0.36760000000000004,
"zona": "Zona Sur",
"address": "Avenida El Aljub",
"resource": "320-1730KBZ (Lateral)",
"matricula": "1730KBZ",
"garbage": "Mezcla de residuos municipales",
"containerType": "",
"weight": 5.0,
"area": ""
},
{
"fecha": "2024-07",
"fecha_dia": "2024-07-15",
"lat": 40.39340283333333,
"lng": 0.41082549999999995,
"zona": "Zona Norte 2",
"address": "Avenida del Papa Lluna",
"resource": "318-7542KBV (IVECO )",
"matricula": "7542KBV",
"garbage": "Mezcla de residuos municipales",
"containerType": "CONTENEDOR RSU 800 TRASERA HOTELES",
"weight": 35.0,
"area": ""
},
{
"fecha": "2023-07",
"fecha_dia": "2023-07-26",
"lat": 40.35603533333333,
"lng": 0.39723216666666666,
"zona": "Urbanizaciones",
"address": "Calle de Argentina",
"resource": "321-1821KBZ (Lateral)",
"matricula": "1821KBZ",
"garbage": "Mezcla de residuos municipales",
"containerType": "CONTENEDOR RSU 2.200 LATERAL",
"weight": 0.0,
"area": "CERRO-MAR"
},
{
"fecha": "2024-03",
"fecha_dia": "2024-03-14",
"lat": 40.33316466666667,
"lng": 0.3662155,
"zona": "Zona Sur",
"address": "Avenida del Mediterráneo",
"resource": "321-1821KBZ (Lateral)",
"matricula": "1821KBZ",
"garbage": "Mezcla de residuos municipales",
"containerType": "CONTENEDOR RSU 2.400 LATERAL",
"weight": 45.0,
"area": "FONT NOVA"
},
{
"fecha": "2023-04",
"fecha_dia": "2023-04-25",
"lat": 40.36911933333333,
"lng": 0.4031708333333333,
"zona": "Zona Norte 1",
"address": "",
"resource": "318-7542KBV (IVECO )",
"matricula": "7542KBV",
"garbage": "Mezcla de residuos municipales",
"containerType": "CONTENEDOR RSU 800 TRASERA HOTELES",
"weight": 30.0,
"area": ""
},
{
"fecha": "2022-06",
"fecha_dia": "2022-06-27",
"lat": 40.371773999999995,
"lng": 0.39521033333333333,
"zona": "Carretera Estación",
"address": "Carretera Vella de Peñíscola",
"resource": "321-1821KBZ (Lateral)",
"matricula": "1821KBZ",
"garbage": "Mezcla de residuos municipales",
"containerType": "CONTENEDOR RSU 2.400 LATERAL",
"weight": 35.0,
"area": ""
},
{
"fecha": "2023-08",
"fecha_dia": "2023-08-06",
"lat": 40.368879,
"lng": 0.401147,
"zona": "Zona Norte 1",
"address": "Calle de Marjals",
"resource": "320-1730KBZ (Lateral)",
"matricula": "1730KBZ",
"garbage": "Mezcla de residuos municipales",
"containerType": "CONTENEDOR RSU 3.200 LATERAL",
"weight": 5.0,
"area": ""
},
{
"fecha": "2022-07",
"fecha_dia": "2022-07-03",
"lat": 40.3701965,
"lng": 0.3920956666666667,
"zona": "Urbanizaciones",
"address": "CV-141",
"resource": "318-7542KBV (IVECO )",
"matricula": "7542KBV",
"garbage": "Mezcla de residuos municipales",
"containerType": "CONTENEDOR RSU 1.100 TRASERA",
"weight": 65.0,
"area": ""
},
{
"fecha": "2022-06",
"fecha_dia": "2022-06-22",
"lat": 40.384191666666666,
"lng": 0.4089603333333333,
"zona": "Zona Norte - Peñísmar",
"address": "Calle de Huesca",
"resource": "321-1821KBZ (Lateral)",
"matricula": "1821KBZ",
"garbage": "Papel",
"containerType": "CONTENEDOR PAPEL 3.200 LATERAL",
"weight": 0.0,
"area": ""
},
{
"fecha": "2025-11",
"fecha_dia": "2025-11-04",
"lat": 40.36279483333333,
"lng": 0.395903,
"zona": "Llandells - Estacion",
"address": "Avenida de la Estació",
"resource": "427-6998MYN (IVECO S-WAY 340 MAZZOCCHIA)",
"matricula": "6998MYN",
"garbage": "Envases mezclados",
"containerType": "CONTENEDOR ENVASES 800l. HOTELES",
"weight": 10.0,
"area": "CAMPING FERRER"
},
{
"fecha": "2025-07",
"fecha_dia": "2025-07-29",
"lat": 40.3633715,
"lng": 0.3980905,
"zona": "Llandells - Estacion",
"address": "Calle de Villeneuve les Avignon",
"resource": "320-1730KBZ (Lateral)",
"matricula": "1730KBZ",
"garbage": "Papel",
"containerType": "CONTENEDOR PAPEL 3.200 LATERAL",
"weight": 20.0,
"area": "LLANDELLS"
},
{
"fecha": "2023-11",
"fecha_dia": "2023-11-25",
"lat": 40.397946166666664,
"lng": 0.41592783333333333,
"zona": "Zona Norte 2",
"address": "Avenida del Papa Luna",
"resource": "318-7542KBV (IVECO )",
"matricula": "7542KBV",
"garbage": "Mezcla de residuos municipales",
"containerType": "CONTENEDOR RSU 1.100 TRASERA",
"weight": 15.0,
"area": ""
},
{
"fecha": "2023-08",
"fecha_dia": "2023-08-14",
"lat": 40.35811366666667,
"lng": 0.3983856666666667,
"zona": "",
"address": "Calle del Hort",
"resource": "318-7542KBV (IVECO )",
"matricula": "7542KBV",
"garbage": "Mezcla de residuos municipales",
"containerType": "CONTENEDOR RSU 800 TRASERA HOTELES",
"weight": 30.0,
"area": "URMI"
},
{
"fecha": "2023-06",
"fecha_dia": "2023-06-17",
"lat": 40.397636000000006,
"lng": 0.414477,
"zona": "Zona Norte 2",
"address": "Carretera Vieja de Peñíscola",
"resource": "318-7542KBV (IVECO )",
"matricula": "7542KBV",
"garbage": "Mezcla de residuos municipales",
"containerType": "CONTENEDOR RSU 800 TRASERA HOTELES",
"weight": 150.0,
"area": ""
},
{
"fecha": "2022-12",
"fecha_dia": "2022-12-10",
"lat": 40.36506283333333,
"lng": 0.39668033333333336,
"zona": "Llandells - Estacion",
"address": "Calle de Don Antonio Pascual Ferrández",
"resource": "320-1730KBZ (Lateral)",
"matricula": "1730KBZ",
"garbage": "Mezcla de residuos municipales",
"containerType": "CONTENEDOR RSU 2.200 LATERAL",
"weight": 0.0,
"area": "LLANDELLS"
},
{
"fecha": "2024-01",
"fecha_dia": "2024-01-22",
"lat": 40.470081,
"lng": 0.4695155,
"zona": "",
"address": "Calle de Aragón",
"resource": "318-7542KBV (IVECO )",
"matricula": "7542KBV",
"garbage": "Mezcla de residuos municipales",
"containerType": "",
"weight": 80.0,
"area": "FUERA TERMINO"
},
{
"fecha": "2023-11",
"fecha_dia": "2023-11-20",
"lat": 40.3736885,
"lng": 0.38993,
"zona": "Carretera Estación",
"address": "Puerta de Polígono",
"resource": "320-1730KBZ (Lateral)",
"matricula": "1730KBZ",
"garbage": "Mezcla de residuos municipales",
"containerType": "CONTENEDOR RSU 2.200 LATERAL",
"weight": 0.0,
"area": ""
},
{
"fecha": "2024-08",
"fecha_dia": "2024-08-02",
"lat": 40.393288999999996,
"lng": 0.41361450000000005,
"zona": "Zona Norte 2",
"address": "Avenida del Papa Luna",
"resource": "318-7542KBV (IVECO )",
"matricula": "7542KBV",
"garbage": "Mezcla de residuos municipales",
"containerType": "CONTENEDOR RSU 1.100 TRASERA",
"weight": 70.0,
"area": ""
},
{
"fecha": "2025-08",
"fecha_dia": "2025-08-31",
"lat": 40.40172166666667,
"lng": 0.3806655,
"zona": "",
"address": "Carretera de Peñíscola a la Estación",
"resource": "321-1821KBZ (Lateral)",
"matricula": "1821KBZ",
"garbage": "Mezcla de residuos municipales",
"containerType": "CONTENEDOR RSU 2.200 LATERAL",
"weight": 445.0,
"area": ""
},
{
"fecha": "2022-11",
"fecha_dia": "2022-11-19",
"lat": 40.38696933333333,
"lng": 0.37775,
"zona": "Carretera Estación",
"address": "Camino de Santa Magdalena",
"resource": "320-1730KBZ (Lateral)",
"matricula": "1730KBZ",
"garbage": "Mezcla de residuos municipales",
"containerType": "CONTENEDOR RSU 2.400 LATERAL",
"weight": 705.0,
"area": ""
},
{
"fecha": "2022-12",
"fecha_dia": "2022-12-28",
"lat": 40.36306733333333,
"lng": 0.39880366666666667,
"zona": "Llandells - Estacion",
"address": "Calle de la Roca",
"resource": "320-1730KBZ (Lateral)",
"matricula": "1730KBZ",
"garbage": "Mezcla de residuos municipales",
"containerType": "CONTENEDOR RSU 2.200 LATERAL",
"weight": 0.0,
"area": "LLANDELLS"
},
{
"fecha": "2023-03",
"fecha_dia": "2023-03-14",
"lat": 40.36337483333333,
"lng": 0.39720833333333333,
"zona": "Llandells - Estacion",
"address": "Calle de Don Antonio Pascual Ferrández",
"resource": "320-1730KBZ (Lateral)",
"matricula": "1730KBZ",
"garbage": "Mezcla de residuos municipales",
"containerType": "CONTENEDOR RSU 2.200 LATERAL",
"weight": 20.0,
"area": "LLANDELLS"
},
{
"fecha": "2022-12",
"fecha_dia": "2022-12-05",
"lat": 40.38614316666667,
"lng": 0.40655516666666663,
"zona": "Zona Norte - Peñísmar",
"address": "Calle 19",
"resource": "320-1730KBZ (Lateral)",
"matricula": "1730KBZ",
"garbage": "Mezcla de residuos municipales",
"containerType": "CONTENEDOR RSU 3.200 LATERAL",
"weight": 0.0,
"area": ""
},
{
"fecha": "2024-12",
"fecha_dia": "2024-12-19",
"lat": 39.88727266666667,
"lng": -0.084014,
"zona": "",
"address": "Calle del Escorredor",
"resource": "321-1821KBZ (Lateral)",
"matricula": "1821KBZ",
"garbage": "Mezcla de residuos municipales",
"containerType": "",
"weight": 5.0,
"area": ""
},
{
"fecha": "2022-07",
"fecha_dia": "2022-07-29",
"lat": 40.358649666666665,
"lng": 0.400275,
"zona": "Centro Suburbano",
"address": "Avenida de Akra Leuke",
"resource": "321-1821KBZ (Lateral)",
"matricula": "1821KBZ",
"garbage": "Mezcla de residuos municipales",
"containerType": "CONTENEDOR RSU 3.200 LATERAL",
"weight": 150.0,
"area": "SUBURBANO"
},
{
"fecha": "2024-08",
"fecha_dia": "2024-08-22",
"lat": 40.39910966666666,
"lng": 0.41648450000000004,
"zona": "Zona Norte 2",
"address": "Avenida del Papa Luna",
"resource": "318-7542KBV (IVECO )",
"matricula": "7542KBV",
"garbage": "Mezcla de residuos municipales",
"containerType": "CONTENEDOR RSU 1.100 TRASERA",
"weight": 65.0,
"area": ""
},
{
"fecha": "2024-07",
"fecha_dia": "2024-07-20",
"lat": 40.3592825,
"lng": 0.39838349999999995,
"zona": "Llandells - Estacion",
"address": "Avenida de la Estació",
"resource": "320-1730KBZ (Lateral)",
"matricula": "1730KBZ",
"garbage": "Mezcla de residuos municipales",
"containerType": "CONTENEDOR RSU 3.200 LATERAL",
"weight": 0.0,
"area": ""
},
{
"fecha": "2022-06",
"fecha_dia": "2022-06-18",
"lat": 40.38799166666667,
"lng": 0.4104605,
"zona": "Zona Norte - Peñísmar",
"address": "Avenida de Cataluña",
"resource": "321-1821KBZ (Lateral)",
"matricula": "1821KBZ",
"garbage": "Mezcla de residuos municipales",
"containerType": "CONTENEDOR RSU 3.200 LATERAL",
"weight": 25.0,
"area": ""
},
{
"fecha": "2024-08",
"fecha_dia": "2024-08-17",
"lat": 40.39341866666667,
"lng": 0.41082183333333333,
"zona": "Zona Norte 2",
"address": "Avenida del Papa Lluna",
"resource": "318-7542KBV (IVECO )",
"matricula": "7542KBV",
"garbage": "Mezcla de residuos municipales",
"containerType": "CONTENEDOR RSU 800 TRASERA HOTELES",
"weight": 95.0,
"area": ""
},
{
"fecha": "2024-03",
"fecha_dia": "2024-03-17",
"lat": 40.368305666666664,
"lng": 0.3889513333333333,
"zona": "Urbanizaciones",
"address": "Urbanizacion las Atalayas",
"resource": "320-1730KBZ (Lateral)",
"matricula": "1730KBZ",
"garbage": "Mezcla de residuos municipales",
"containerType": "CONTENEDOR RSU 2.400 LATERAL",
"weight": 135.0,
"area": "ATALAYAS"
},
{
"fecha": "2022-09",
"fecha_dia": "2022-09-02",
"lat": 40.33573233333333,
"lng": 0.36844533333333335,
"zona": "Zona Sur",
"address": "Calle de Aragón",
"resource": "321-1821KBZ (Lateral)",
"matricula": "1821KBZ",
"garbage": "Mezcla de residuos municipales",
"containerType": "CONTENEDOR RSU 2.400 LATERAL",
"weight": 25.0,
"area": "FONT NOVA"
},
{
"fecha": "2022-11",
"fecha_dia": "2022-11-05",
"lat": 40.360038833333334,
"lng": 0.39831716666666667,
"zona": "Llandells - Estacion",
"address": "Calle de Don Antonio Pascual Ferrández",
"resource": "320-1730KBZ (Lateral)",
"matricula": "1730KBZ",
"garbage": "Mezcla de residuos municipales",
"containerType": "CONTENEDOR RSU 2.200 LATERAL",
"weight": 700.0,
"area": "LLANDELLS"
},
{
"fecha": "2024-07",
"fecha_dia": "2024-07-28",
"lat": 40.359177333333335,
"lng": 0.3941926666666667,
"zona": "Urbanizaciones",
"address": "Calle de la Cova",
"resource": "320-1730KBZ (Lateral)",
"matricula": "1730KBZ",
"garbage": "Mezcla de residuos municipales",
"containerType": "CONTENEDOR RSU 2.400 LATERAL",
"weight": 0.0,
"area": "URMI"
},
{
"fecha": "2022-09",
"fecha_dia": "2022-09-19",
"lat": 40.37353933333333,
"lng": 0.3909715,
"zona": "Carretera Estación",
"address": "Assagador de la Creu",
"resource": "321-1821KBZ (Lateral)",
"matricula": "1821KBZ",
"garbage": "Mezcla de residuos municipales",
"containerType": "CONTENEDOR RSU 2.400 LATERAL",
"weight": 55.0,
"area": ""
},
{
"fecha": "2024-07",
"fecha_dia": "2024-07-31",
"lat": 40.361250000000005,
"lng": 0.396901,
"zona": "Llandells - Estacion",
"address": "Avenida de la Estació",
"resource": "318-7542KBV (IVECO )",
"matricula": "7542KBV",
"garbage": "Mezcla de residuos municipales",
"containerType": "CONTENEDOR RSU 3.200 LATERAL",
"weight": 45.0,
"area": ""
},
{
"fecha": "2024-09",
"fecha_dia": "2024-09-16",
"lat": 40.370801666666665,
"lng": 0.404581,
"zona": "Zona Norte 1",
"address": "Avenida del Papa Luna",
"resource": "321-1821KBZ (Lateral)",
"matricula": "1821KBZ",
"garbage": "Mezcla de residuos municipales",
"containerType": "CONTENEDOR RSU 3.200 LATERAL",
"weight": 60.0,
"area": ""
},
{
"fecha": "2024-01",
"fecha_dia": "2024-01-16",
"lat": 40.38710783333333,
"lng": 0.40958999999999995,
"zona": "Zona Norte - Peñísmar",
"address": "Avenida de Cataluña",
"resource": "321-1821KBZ (Lateral)",
"matricula": "1821KBZ",
"garbage": "Papel",
"containerType": "CONTENEDOR PAPEL 3.200 LATERAL",
"weight": 15.0,
"area": ""
},
{
"fecha": "2023-07",
"fecha_dia": "2023-07-14",
"lat": 40.33597283333334,
"lng": 0.3697578333333333,
"zona": "Zona Sur",
"address": "Calle de San Sebastián",
"resource": "321-1821KBZ (Lateral)",
"matricula": "1821KBZ",
"garbage": "Mezcla de residuos municipales",
"containerType": "CONTENEDOR RSU 2.200 LATERAL",
"weight": 0.0,
"area": "FONT NOVA"
},
{
"fecha": "2023-01",
"fecha_dia": "2023-01-06",
"lat": 40.35908416666667,
"lng": 0.400491,
"zona": "Centro Suburbano",
"address": "Avenida de España",
"resource": "318-7542KBV (IVECO )",
"matricula": "7542KBV",
"garbage": "Orgánica",
"containerType": "CONTENEDOR ORGÁNICA 1.100 TRASERA",
"weight": 70.0,
"area": "SUBURBANO"
},
{
"fecha": "2025-09",
"fecha_dia": "2025-09-03",
"lat": 40.3830835,
"lng": 0.40851966666666667,
"zona": "Zona Norte - Peñísmar",
"address": "Avenida de Valencia",
"resource": "320-1730KBZ (Lateral)",
"matricula": "1730KBZ",
"garbage": "Mezcla de residuos municipales",
"containerType": "CONTENEDOR RSU 3.200 LATERAL",
"weight": 0.0,
"area": ""
},
{
"fecha": "2023-06",
"fecha_dia": "2023-06-07",
"lat": 40.35916333333333,
"lng": 0.40332033333333334,
"zona": "Centro Suburbano",
"address": "Calle Playa",
"resource": "318-7542KBV (IVECO )",
"matricula": "7542KBV",
"garbage": "Mezcla de residuos municipales",
"containerType": "CONTENEDOR RSU 1.100 TRASERA",
"weight": 65.0,
"area": "SUBURBANO"
},
{
"fecha": "2024-07",
"fecha_dia": "2024-07-28",
"lat": 40.3611925,
"lng": 0.39684183333333334,
"zona": "Llandells - Estacion",
"address": "Avenida de la Estació",
"resource": "318-7542KBV (IVECO )",
"matricula": "7542KBV",
"garbage": "Mezcla de residuos municipales",
"containerType": "CONTENEDOR RSU 3.200 LATERAL",
"weight": 65.0,
"area": ""
},
{
"fecha": "2025-04",
"fecha_dia": "2025-04-10",
"lat": 40.36255683333333,
"lng": 0.39900266666666667,
"zona": "Llandells - Estacion",
"address": "Calle de la Roca",
"resource": "320-1730KBZ (Lateral)",
"matricula": "1730KBZ",
"garbage": "Mezcla de residuos municipales",
"containerType": "CONTENEDOR RSU 2.200 LATERAL",
"weight": 30.0,
"area": "LLANDELLS"
},
{
"fecha": "2025-02",
"fecha_dia": "2025-02-04",
"lat": 40.365210000000005,
"lng": 0.39126216666666663,
"zona": "Urbanizaciones",
"address": "Avenida de Portugal",
"resource": "320-1730KBZ (Lateral)",
"matricula": "1730KBZ",
"garbage": "Mezcla de residuos municipales",
"containerType": "CONTENEDOR RSU 2.400 LATERAL",
"weight": 385.0,
"area": "ATALAYAS"
},
{
"fecha": "2023-12",
"fecha_dia": "2023-12-18",
"lat": 40.36191233333333,
"lng": 0.3975335,
"zona": "Llandells - Estacion",
"address": "Calle de Llandells",
"resource": "320-1730KBZ (Lateral)",
"matricula": "1730KBZ",
"garbage": "Mezcla de residuos municipales",
"containerType": "CONTENEDOR RSU 2.200 LATERAL",
"weight": 135.0,
"area": "LLANDELLS"
},
{
"fecha": "2023-07",
"fecha_dia": "2023-07-18",
"lat": 40.3761055,
"lng": 0.40669350000000004,
"zona": "Zona Norte 1",
"address": "Avenida del Papa Luna",
"resource": "318-7542KBV (IVECO )",
"matricula": "7542KBV",
"garbage": "Mezcla de residuos municipales",
"containerType": "CONTENEDOR RSU 800 TRASERA HOTELES",
"weight": 40.0,
"area": ""
},
{
"fecha": "2023-03",
"fecha_dia": "2023-03-21",
"lat": 40.358705,
"lng": 0.40251183333333335,
"zona": "Centro Suburbano",
"address": "Avenida de Akra Leuke",
"resource": "318-7542KBV (IVECO )",
"matricula": "7542KBV",
"garbage": "Orgánica",
"containerType": "CONTENEDOR ORGÁNICA 1.100 TRASERA",
"weight": 80.0,
"area": "SUBURBANO"
},
{
"fecha": "2022-02",
"fecha_dia": "2022-02-21",
"lat": 40.36132733333333,
"lng": 0.399389,
"zona": "Llandells - Estacion",
"address": "Calle de la Roca",
"resource": "318-7542KBV (IVECO )",
"matricula": "7542KBV",
"garbage": "Mezcla de residuos municipales",
"containerType": "CONTENEDOR RSU 800 TRASERA HOTELES",
"weight": 35.0,
"area": "LLANDELLS"
},
{
"fecha": "2025-04",
"fecha_dia": "2025-04-12",
"lat": 40.38557016666667,
"lng": 0.40813216666666663,
"zona": "Zona Norte - Peñísmar",
"address": "Avenida de Cataluña",
"resource": "320-1730KBZ (Lateral)",
"matricula": "1730KBZ",
"garbage": "Papel",
"containerType": "CONTENEDOR PAPEL 3.200 LATERAL",
"weight": 10.0,
"area": ""
},
{
"fecha": "2025-03",
"fecha_dia": "2025-03-04",
"lat": 40.38078266666666,
"lng": 0.4057636666666667,
"zona": "Zona Norte - Peñísmar",
"address": "Calle de Alicante",
"resource": "320-1730KBZ (Lateral)",
"matricula": "1730KBZ",
"garbage": "Mezcla de residuos municipales",
"containerType": "CONTENEDOR RSU 3.200 LATERAL",
"weight": 110.0,
"area": ""
},
{
"fecha": "2025-07",
"fecha_dia": "2025-07-17",
"lat": 40.35874183333333,
"lng": 0.4022251666666667,
"zona": "Centro Suburbano",
"address": "Avenida de Akra Leuke",
"resource": "427-6998MYN (IVECO S-WAY 340 MAZZOCCHIA)",
"matricula": "6998MYN",
"garbage": "Mezcla de residuos municipales",
"containerType": "CONTENEDOR RSU 1.100 TRASERA",
"weight": 35.0,
"area": "SUBURBANO"
},
{
"fecha": "2022-01",
"fecha_dia": "2022-01-18",
"lat": 40.360680499999994,
"lng": 0.39958266666666664,
"zona": "Llandells - Estacion",
"address": "Calle de la Roca",
"resource": "320-1730KBZ (Lateral)",
"matricula": "1730KBZ",
"garbage": "Mezcla de residuos municipales",
"containerType": "CONTENEDOR RSU 2.200 LATERAL",
"weight": 100.0,
"area": "LLANDELLS"
},
{
"fecha": "2023-05",
"fecha_dia": "2023-05-28",
"lat": 40.36423383333333,
"lng": 0.40116333333333337,
"zona": "Zona Norte 1",
"address": "",
"resource": "318-7542KBV (IVECO )",
"matricula": "7542KBV",
"garbage": "Mezcla de residuos municipales",
"containerType": "CONTENEDOR RSU 800 TRASERA HOTELES",
"weight": 10.0,
"area": ""
},
{
"fecha": "2022-07",
"fecha_dia": "2022-07-31",
"lat": 40.359039,
"lng": 0.4005595,
"zona": "Centro Suburbano",
"address": "Avenida de España",
"resource": "318-7542KBV (IVECO )",
"matricula": "7542KBV",
"garbage": "Mezcla de residuos municipales",
"containerType": "CONTENEDOR RSU 1.100 TRASERA",
"weight": 105.0,
"area": "SUBURBANO"
},
{
"fecha": "2023-08",
"fecha_dia": "2023-08-01",
"lat": 40.338926,
"lng": 0.37758216666666666,
"zona": "Zona Sur",
"address": "Calle de Irta",
"resource": "321-1821KBZ (Lateral)",
"matricula": "1821KBZ",
"garbage": "Mezcla de residuos municipales",
"containerType": "CONTENEDOR RSU 2.200 LATERAL",
"weight": 0.0,
"area": ""
},
{
"fecha": "2022-06",
"fecha_dia": "2022-06-27",
"lat": 40.3591265,
"lng": 0.4048238333333333,
"zona": "Centro Suburbano",
"address": "Calle Reverendo Laureano Gil",
"resource": "318-7542KBV (IVECO )",
"matricula": "7542KBV",
"garbage": "Mezcla de residuos municipales",
"containerType": "CONTENEDOR RSU 1.100 TRASERA",
"weight": 95.0,
"area": "SUBURBANO"
},
{
"fecha": "2022-08",
"fecha_dia": "2022-08-24",
"lat": 40.36332616666667,
"lng": 0.3971705,
"zona": "Llandells - Estacion",
"address": "Calle Cierzo",
"resource": "321-1821KBZ (Lateral)",
"matricula": "1821KBZ",
"garbage": "Envases mezclados",
"containerType": "CONTENEDOR ENVASES 3.200 LATERAL",
"weight": 40.0,
"area": "LLANDELLS"
},
{
"fecha": "2022-03",
"fecha_dia": "2022-03-16",
"lat": 40.361275500000005,
"lng": 0.39947583333333336,
"zona": "Llandells - Estacion",
"address": "Calle de la Roca",
"resource": "320-1730KBZ (Lateral)",
"matricula": "1730KBZ",
"garbage": "Mezcla de residuos municipales",
"containerType": "CONTENEDOR RSU 2.200 LATERAL",
"weight": 60.0,
"area": "LLANDELLS"
},
{
"fecha": "2023-08",
"fecha_dia": "2023-08-18",
"lat": 40.35924433333333,
"lng": 0.40337833333333334,
"zona": "Centro Suburbano",
"address": "Calle Playa",
"resource": "318-7542KBV (IVECO )",
"matricula": "7542KBV",
"garbage": "Mezcla de residuos municipales",
"containerType": "CONTENEDOR RSU 1.100 TRASERA",
"weight": 45.0,
"area": "SUBURBANO"
},
{
"fecha": "2022-04",
"fecha_dia": "2022-04-02",
"lat": 40.3337005,
"lng": 0.36503366666666665,
"zona": "Zona Sur",
"address": "Avenida del Mediterráneo",
"resource": "320-1730KBZ (Lateral)",
"matricula": "1730KBZ",
"garbage": "Mezcla de residuos municipales",
"containerType": "CONTENEDOR RSU 2.400 LATERAL",
"weight": 70.0,
"area": "FONT NOVA"
},
{
"fecha": "2025-08",
"fecha_dia": "2025-08-01",
"lat": 40.359377333333335,
"lng": 0.3984845,
"zona": "Llandells - Estacion",
"address": "Avenida de la Estació",
"resource": "320-1730KBZ (Lateral)",
"matricula": "1730KBZ",
"garbage": "Mezcla de residuos municipales",
"containerType": "CONTENEDOR RSU 3.200 LATERAL",
"weight": 20.0,
"area": ""
},
{
"fecha": "2025-03",
"fecha_dia": "2025-03-31",
"lat": 40.410806666666666,
"lng": 0.38980133333333333,
"zona": "",
"address": "Camí de la Ratlla del Terme",
"resource": "320-1730KBZ (Lateral)",
"matricula": "1730KBZ",
"garbage": "Envases mezclados",
"containerType": "CONTENEDOR ENVASES 3.200 LATERAL",
"weight": 160.0,
"area": ""
},
{
"fecha": "2025-09",
"fecha_dia": "2025-09-08",
"lat": 40.3654375,
"lng": 0.39027283333333335,
"zona": "Urbanizaciones",
"address": "Avenida de Luxemburg",
"resource": "320-1730KBZ (Lateral)",
"matricula": "1730KBZ",
"garbage": "Mezcla de residuos municipales",
"containerType": "CONTENEDOR RSU 2.400 LATERAL",
"weight": 20.0,
"area": "ATALAYAS"
},
{
"fecha": "2023-11",
"fecha_dia": "2023-11-05",
"lat": 40.3591765,
"lng": 0.40479000000000004,
"zona": "Centro Suburbano",
"address": "Calle Reverendo Laureano Gil",
"resource": "318-7542KBV (IVECO )",
"matricula": "7542KBV",
"garbage": "Mezcla de residuos municipales",
"containerType": "CONTENEDOR RSU 1.100 TRASERA",
"weight": 30.0,
"area": "SUBURBANO"
},
{
"fecha": "2024-03",
"fecha_dia": "2024-03-01",
"lat": 39.88248716666667,
"lng": -0.07260749999999999,
"zona": "",
"address": "Calle de Roma",
"resource": "321-1821KBZ (Lateral)",
"matricula": "1821KBZ",
"garbage": "Mezcla de residuos municipales",
"containerType": "",
"weight": 35.0,
"area": ""
},
{
"fecha": "2023-10",
"fecha_dia": "2023-10-27",
"lat": 40.36209266666666,
"lng": 0.39092416666666663,
"zona": "Urbanizaciones",
"address": "Avenida de Grècia",
"resource": "321-1821KBZ (Lateral)",
"matricula": "1821KBZ",
"garbage": "Mezcla de residuos municipales",
"containerType": "",
"weight": 60.0,
"area": "ATALAYAS"
},
{
"fecha": "2022-11",
"fecha_dia": "2022-11-26",
"lat": 40.376360999999996,
"lng": 0.39513383333333335,
"zona": "",
"address": "Camino de Azagador",
"resource": "321-1821KBZ (Lateral)",
"matricula": "1821KBZ",
"garbage": "Mezcla de residuos municipales",
"containerType": "CONTENEDOR RSU 2.400 LATERAL",
"weight": 405.0,
"area": ""
},
{
"fecha": "2023-04",
"fecha_dia": "2023-04-16",
"lat": 40.397304166666665,
"lng": 0.4144771666666667,
"zona": "Zona Norte 2",
"address": "Avenida del Papa Lluna",
"resource": "318-7542KBV (IVECO )",
"matricula": "7542KBV",
"garbage": "Mezcla de residuos municipales",
"containerType": "CONTENEDOR RSU 800 TRASERA HOTELES",
"weight": 35.0,
"area": ""
},
{
"fecha": "2024-03",
"fecha_dia": "2024-03-28",
"lat": 40.35912783333333,
"lng": 0.4033695,
"zona": "Centro Suburbano",
"address": "Calle Playa",
"resource": "318-7542KBV (IVECO )",
"matricula": "7542KBV",
"garbage": "Mezcla de residuos municipales",
"containerType": "CONTENEDOR RSU 1.100 TRASERA",
"weight": 35.0,
"area": "SUBURBANO"
},
{
"fecha": "2024-01",
"fecha_dia": "2024-01-17",
"lat": 40.05448816666667,
"lng": -0.139846,
"zona": "",
"address": "CV-160",
"resource": "321-1821KBZ (Lateral)",
"matricula": "1821KBZ",
"garbage": "Mezcla de residuos municipales",
"containerType": "",
"weight": 25.0,
"area": ""
},
{
"fecha": "2023-08",
"fecha_dia": "2023-08-16",
"lat": 40.38383666666667,
"lng": 0.40715483333333335,
"zona": "Zona Norte - Peñísmar",
"address": "Calle de Barcelona",
"resource": "318-7542KBV (IVECO )",
"matricula": "7542KBV",
"garbage": "Mezcla de residuos municipales",
"containerType": "CONTENEDOR RSU 800 TRASERA HOTELES",
"weight": 15.0,
"area": ""
},
{
"fecha": "2025-06",
"fecha_dia": "2025-06-30",
"lat": 40.385575333333335,
"lng": 0.4081268333333333,
"zona": "Zona Norte - Peñísmar",
"address": "Avenida de Cataluña",
"resource": "320-1730KBZ (Lateral)",
"matricula": "1730KBZ",
"garbage": "Mezcla de residuos municipales",
"containerType": "CONTENEDOR RSU 3.200 LATERAL",
"weight": 120.0,
"area": ""
},
{
"fecha": "2023-09",
"fecha_dia": "2023-09-25",
"lat": 40.38469,
"lng": 0.3800495,
"zona": "Carretera Estación",
"address": "Camino de Santa Magdalena",
"resource": "321-1821KBZ (Lateral)",
"matricula": "1821KBZ",
"garbage": "Mezcla de residuos municipales",
"containerType": "CONTENEDOR RSU 2.400 LATERAL",
"weight": 40.0,
"area": ""
},
{
"fecha": "2024-07",
"fecha_dia": "2024-07-21",
"lat": 40.357526666666665,
"lng": 0.39853550000000004,
"zona": "Urbanizaciones",
"address": "Calle del Hort",
"resource": "321-1821KBZ (Lateral)",
"matricula": "1821KBZ",
"garbage": "Mezcla de residuos municipales",
"containerType": "CONTENEDOR RSU 2.200 LATERAL",
"weight": 5.0,
"area": ""
},
{
"fecha": "2022-12",
"fecha_dia": "2022-12-22",
"lat": 40.3736925,
"lng": 0.3899786666666667,
"zona": "Carretera Estación",
"address": "Puerta de Polígono",
"resource": "320-1730KBZ (Lateral)",
"matricula": "1730KBZ",
"garbage": "Mezcla de residuos municipales",
"containerType": "CONTENEDOR RSU 2.200 LATERAL",
"weight": 0.0,
"area": ""
},
{
"fecha": "2022-08",
"fecha_dia": "2022-08-18",
"lat": 40.39910416666667,
"lng": 0.4164991666666667,
"zona": "Zona Norte 2",
"address": "Avenida del Papa Luna",
"resource": "318-7542KBV (IVECO )",
"matricula": "7542KBV",
"garbage": "Mezcla de residuos municipales",
"containerType": "CONTENEDOR RSU 1.100 TRASERA",
"weight": 35.0,
"area": ""
},
{
"fecha": "2025-06",
"fecha_dia": "2025-06-27",
"lat": 40.35907733333333,
"lng": 0.40041766666666667,
"zona": "Centro Suburbano",
"address": "Avenida de España",
"resource": "427-6998MYN (IVECO S-WAY 340 MAZZOCCHIA)",
"matricula": "6998MYN",
"garbage": "Envases mezclados",
"containerType": "",
"weight": 40.0,
"area": "SUBURBANO"
},
{
"fecha": "2024-11",
"fecha_dia": "2024-11-04",
"lat": 40.3923445,
"lng": 0.393613,
"zona": "",
"address": "Carretera de Peñíscola a la Estación",
"resource": "320-1730KBZ (Lateral)",
"matricula": "1730KBZ",
"garbage": "Mezcla de residuos municipales",
"containerType": "CONTENEDOR RSU 2.200 LATERAL",
"weight": 0.0,
"area": ""
},
{
"fecha": "2023-02",
"fecha_dia": "2023-02-03",
"lat": 40.36308366666666,
"lng": 0.38745433333333335,
"zona": "Urbanizaciones",
"address": "Avenida de Grècia",
"resource": "320-1730KBZ (Lateral)",
"matricula": "1730KBZ",
"garbage": "Mezcla de residuos municipales",
"containerType": "CONTENEDOR RSU 2.400 LATERAL",
"weight": 375.0,
"area": "ATALAYAS"
},
{
"fecha": "2023-04",
"fecha_dia": "2023-04-30",
"lat": 40.3941985,
"lng": 0.3703765,
"zona": "Carretera Estación",
"address": "Carretera de Peñíscola a la Estación",
"resource": "320-1730KBZ (Lateral)",
"matricula": "1730KBZ",
"garbage": "Mezcla de residuos municipales",
"containerType": "CONTENEDOR RSU 2.400 LATERAL",
"weight": 20.0,
"area": ""
},
{
"fecha": "2025-10",
"fecha_dia": "2025-10-10",
"lat": 40.362671666666664,
"lng": 0.40160466666666667,
"zona": "Zona Norte 1",
"address": "Calle de Pigmalión",
"resource": "427-6998MYN (IVECO S-WAY 340 MAZZOCCHIA)",
"matricula": "6998MYN",
"garbage": "Orgánica",
"containerType": "CONTENEDOR ORGÁNICA 800l. HOTELES",
"weight": 65.0,
"area": ""
},
{
"fecha": "2024-03",
"fecha_dia": "2024-03-16",
"lat": 40.3596825,
"lng": 0.3998541666666667,
"zona": "Llandells - Estacion",
"address": "Calle del Mestre Roca",
"resource": "320-1730KBZ (Lateral)",
"matricula": "1730KBZ",
"garbage": "Mezcla de residuos municipales",
"containerType": "CONTENEDOR RSU 2.200 LATERAL",
"weight": 130.0,
"area": "Llandells"
},
{
"fecha": "2023-05",
"fecha_dia": "2023-05-08",
"lat": 40.35821133333333,
"lng": 0.39825083333333333,
"zona": "Urbanizaciones",
"address": "Calle de Méjico",
"resource": "320-1730KBZ (Lateral)",
"matricula": "1730KBZ",
"garbage": "Mezcla de residuos municipales",
"containerType": "CONTENEDOR RSU 2.200 LATERAL",
"weight": 20.0,
"area": "URMI"
},
{
"fecha": "2024-07",
"fecha_dia": "2024-07-04",
"lat": 40.35914616666666,
"lng": 0.4032475,
"zona": "Centro Suburbano",
"address": "Calle Playa",
"resource": "318-7542KBV (IVECO )",
"matricula": "7542KBV",
"garbage": "Mezcla de residuos municipales",
"containerType": "CONTENEDOR RSU 1.100 TRASERA",
"weight": 75.0,
"area": "SUBURBANO"
},
{
"fecha": "2023-10",
"fecha_dia": "2023-10-05",
"lat": 40.364240833333334,
"lng": 0.4012041666666667,
"zona": "Zona Norte 1",
"address": "",
"resource": "318-7542KBV (IVECO )",
"matricula": "7542KBV",
"garbage": "Mezcla de residuos municipales",
"containerType": "CONTENEDOR RSU 800 TRASERA HOTELES",
"weight": 90.0,
"area": ""
},
{
"fecha": "2023-08",
"fecha_dia": "2023-08-22",
"lat": 40.39757133333333,
"lng": 0.41443199999999997,
"zona": "Zona Norte 2",
"address": "Carretera Vieja de Peñíscola",
"resource": "318-7542KBV (IVECO )",
"matricula": "7542KBV",
"garbage": "Mezcla de residuos municipales",
"containerType": "CONTENEDOR RSU 800 TRASERA HOTELES",
"weight": 65.0,
"area": ""
},
{
"fecha": "2024-08",
"fecha_dia": "2024-08-21",
"lat": 40.383934999999994,
"lng": 0.4070938333333334,
"zona": "Zona Norte - Peñísmar",
"address": "Calle de Barcelona",
"resource": "318-7542KBV (IVECO )",
"matricula": "7542KBV",
"garbage": "Mezcla de residuos municipales",
"containerType": "CONTENEDOR RSU 800 TRASERA HOTELES",
"weight": 30.0,
"area": ""
},
{
"fecha": "2022-07",
"fecha_dia": "2022-07-26",
"lat": 40.359341,
"lng": 0.39682300000000004,
"zona": "Urbanizaciones",
"address": "Calle de la Cova",
"resource": "321-1821KBZ (Lateral)",
"matricula": "1821KBZ",
"garbage": "Mezcla de residuos municipales",
"containerType": "CONTENEDOR RSU 2.400 LATERAL",
"weight": 50.0,
"area": "URMI"
},
{
"fecha": "2024-04",
"fecha_dia": "2024-04-18",
"lat": 40.37614433333333,
"lng": 0.40671583333333333,
"zona": "Zona Norte 1",
"address": "Avenida del Papa Luna",
"resource": "318-7542KBV (IVECO )",
"matricula": "7542KBV",
"garbage": "Mezcla de residuos municipales",
"containerType": "CONTENEDOR RSU 800 TRASERA HOTELES",
"weight": 75.0,
"area": ""
},
{
"fecha": "2022-07",
"fecha_dia": "2022-07-06",
"lat": 40.397389,
"lng": 0.414433,
"zona": "Zona Norte 2",
"address": "",
"resource": "318-7542KBV (IVECO )",
"matricula": "7542KBV",
"garbage": "Mezcla de residuos municipales",
"containerType": "CONTENEDOR RSU 800 TRASERA HOTELES",
"weight": 60.0,
"area": ""
},
{
"fecha": "2022-07",
"fecha_dia": "2022-07-19",
"lat": 40.37801066666667,
"lng": 0.3894175,
"zona": "Carretera Estación",
"address": "Camino de Azagador",
"resource": "320-1730KBZ (Lateral)",
"matricula": "1730KBZ",
"garbage": "Mezcla de residuos municipales",
"containerType": "CONTENEDOR RSU 2.400 LATERAL",
"weight": 0.0,
"area": ""
},
{
"fecha": "2025-08",
"fecha_dia": "2025-08-21",
"lat": 40.386271666666666,
"lng": 0.40970900000000005,
"zona": "Zona Norte - Peñísmar",
"address": "Calle Teruel",
"resource": "427-6998MYN (IVECO S-WAY 340 MAZZOCCHIA)",
"matricula": "6998MYN",
"garbage": "Orgánica",
"containerType": "CONTENEDOR ORGÁNICA 800l. HOTELES",
"weight": 145.0,
"area": "HOTEL ACUALANDIA"
},
{
"fecha": "2023-01",
"fecha_dia": "2023-01-16",
"lat": 40.35916683333333,
"lng": 0.40326116666666667,
"zona": "Centro Suburbano",
"address": "Calle Playa",
"resource": "318-7542KBV (IVECO )",
"matricula": "7542KBV",
"garbage": "Mezcla de residuos municipales",
"containerType": "CONTENEDOR RSU 1.100 TRASERA",
"weight": 30.0,
"area": "SUBURBANO"
},
{
"fecha": "2024-11",
"fecha_dia": "2024-11-27",
"lat": 40.16682383333333,
"lng": -0.0628155,
"zona": "",
"address": "Calle Unió la Barona",
"resource": "321-1821KBZ (Lateral)",
"matricula": "1821KBZ",
"garbage": "Mezcla de residuos municipales",
"containerType": "",
"weight": 5.0,
"area": ""
},
{
"fecha": "2022-03",
"fecha_dia": "2022-03-09",
"lat": 40.334662333333334,
"lng": 0.36231816666666666,
"zona": "Zona Sur",
"address": "Calle Sogorb",
"resource": "320-1730KBZ (Lateral)",
"matricula": "1730KBZ",
"garbage": "Envases mezclados",
"containerType": "CONTENEDOR ENVASES 3.200 LATERAL",
"weight": 5.0,
"area": "FONT NOVA"
},
{
"fecha": "2022-09",
"fecha_dia": "2022-09-14",
"lat": 40.377427499999996,
"lng": 0.4072385,
"zona": "Zona Norte 1",
"address": "Avenida del Papa Luna",
"resource": "321-1821KBZ (Lateral)",
"matricula": "1821KBZ",
"garbage": "Mezcla de residuos municipales",
"containerType": "CONTENEDOR RSU 3.200 LATERAL",
"weight": 5.0,
"area": ""
},
{
"fecha": "2024-07",
"fecha_dia": "2024-07-28",
"lat": 40.358216,
"lng": 0.3982723333333333,
"zona": "Urbanizaciones",
"address": "Calle de Méjico",
"resource": "321-1821KBZ (Lateral)",
"matricula": "1821KBZ",
"garbage": "Mezcla de residuos municipales",
"containerType": "CONTENEDOR RSU 800 TRASERA HOTELES",
"weight": 55.0,
"area": "URMI"
},
{
"fecha": "2023-08",
"fecha_dia": "2023-08-27",
"lat": 40.3672925,
"lng": 0.39040933333333333,
"zona": "Urbanizaciones",
"address": "Urbanizacion las Atalayas",
"resource": "320-1730KBZ (Lateral)",
"matricula": "1730KBZ",
"garbage": "Mezcla de residuos municipales",
"containerType": "CONTENEDOR RSU 2.400 LATERAL",
"weight": 35.0,
"area": "ATALAYAS"
},
{
"fecha": "2023-11",
"fecha_dia": "2023-11-08",
"lat": 40.345099499999996,
"lng": 0.3867141666666667,
"zona": "Zona Sur",
"address": "Avenida Eugenio J. Mir y Mir",
"resource": "320-1730KBZ (Lateral)",
"matricula": "1730KBZ",
"garbage": "Envases mezclados",
"containerType": "CONTENEDOR ENVASES 3.200 LATERAL",
"weight": 45.0,
"area": ""
},
{
"fecha": "2023-04",
"fecha_dia": "2023-04-14",
"lat": 40.376084500000005,
"lng": 0.4067073333333333,
"zona": "Zona Norte 1",
"address": "Avenida del Papa Luna",
"resource": "318-7542KBV (IVECO )",
"matricula": "7542KBV",
"garbage": "Mezcla de residuos municipales",
"containerType": "CONTENEDOR RSU 800 TRASERA HOTELES",
"weight": 65.0,
"area": ""
},
{
"fecha": "2022-02",
"fecha_dia": "2022-02-24",
"lat": 40.39741466666667,
"lng": 0.41433949999999997,
"zona": "Zona Norte 2",
"address": "",
"resource": "318-7542KBV (IVECO )",
"matricula": "7542KBV",
"garbage": "Mezcla de residuos municipales",
"containerType": "CONTENEDOR RSU 800 TRASERA HOTELES",
"weight": 75.0,
"area": ""
},
{
"fecha": "2023-07",
"fecha_dia": "2023-07-30",
"lat": 40.4014115,
"lng": 0.4131251666666667,
"zona": "",
"address": "Camino Ratlla del Terme",
"resource": "321-1821KBZ (Lateral)",
"matricula": "1821KBZ",
"garbage": "Mezcla de residuos municipales",
"containerType": "CONTENEDOR RSU 3.200 LATERAL",
"weight": 0.0,
"area": ""
},
{
"fecha": "2023-07",
"fecha_dia": "2023-07-07",
"lat": 40.362407833333336,
"lng": 0.38781466666666664,
"zona": "Urbanizaciones",
"address": "Avenida de Itàlia",
"resource": "321-1821KBZ (Lateral)",
"matricula": "1821KBZ",
"garbage": "Envases mezclados",
"containerType": "CONTENEDOR ENVASES 3.200 LATERAL",
"weight": 0.0,
"area": "ATALAYAS"
},
{
"fecha": "2024-06",
"fecha_dia": "2024-06-05",
"lat": 40.3706975,
"lng": 0.4035258333333333,
"zona": "Zona Norte 1",
"address": "Calle de Madrid",
"resource": "318-7542KBV (IVECO )",
"matricula": "7542KBV",
"garbage": "Mezcla de residuos municipales",
"containerType": "CONTENEDOR RSU 800 TRASERA HOTELES",
"weight": 50.0,
"area": ""
},
{
"fecha": "2022-07",
"fecha_dia": "2022-07-27",
"lat": 40.379138166666664,
"lng": 0.40685333333333334,
"zona": "Zona Norte - Peñísmar",
"address": "Avenida de Valencia",
"resource": "318-7542KBV (IVECO )",
"matricula": "7542KBV",
"garbage": "Mezcla de residuos municipales",
"containerType": "CONTENEDOR RSU 800 TRASERA HOTELES",
"weight": 35.0,
"area": ""
},
{
"fecha": "2023-05",
"fecha_dia": "2023-05-05",
"lat": 40.37907216666667,
"lng": 0.38713800000000004,
"zona": "Carretera Estación",
"address": "Urbanización de Lloma Vella",
"resource": "318-7542KBV (IVECO )",
"matricula": "7542KBV",
"garbage": "Mezcla de residuos municipales",
"containerType": "CONTENEDOR RSU 1.100 TRASERA",
"weight": 45.0,
"area": ""
},
{
"fecha": "2024-01",
"fecha_dia": "2024-01-15",
"lat": 40.36182866666666,
"lng": 0.40151133333333333,
"zona": "Zona Norte 1",
"address": "Calle de Pigmalión",
"resource": "318-7542KBV (IVECO )",
"matricula": "7542KBV",
"garbage": "Mezcla de residuos municipales",
"containerType": "CONTENEDOR RSU 800 TRASERA HOTELES",
"weight": 90.0,
"area": ""
},
{
"fecha": "2023-01",
"fecha_dia": "2023-01-05",
"lat": 40.35913,
"lng": 0.4004948333333333,
"zona": "Centro Suburbano",
"address": "Avenida de España",
"resource": "318-7542KBV (IVECO )",
"matricula": "7542KBV",
"garbage": "Orgánica",
"containerType": "CONTENEDOR ORGÁNICA 1.100 TRASERA",
"weight": 50.0,
"area": "SUBURBANO"
},
{
"fecha": "2022-09",
"fecha_dia": "2022-09-04",
"lat": 40.388002,
"lng": 0.41043833333333335,
"zona": "Zona Norte - Peñísmar",
"address": "Avenida de Cataluña",
"resource": "321-1821KBZ (Lateral)",
"matricula": "1821KBZ",
"garbage": "Mezcla de residuos municipales",
"containerType": "CONTENEDOR RSU 3.200 LATERAL",
"weight": 70.0,
"area": ""
},
{
"fecha": "2024-08",
"fecha_dia": "2024-08-19",
"lat": 40.359212666666664,
"lng": 0.40460583333333333,
"zona": "Centro Suburbano",
"address": "Calle del Molino",
"resource": "318-7542KBV (IVECO )",
"matricula": "7542KBV",
"garbage": "Mezcla de residuos municipales",
"containerType": "CONTENEDOR RSU 1.100 TRASERA",
"weight": 110.0,
"area": "SUBURBANO"
},
{
"fecha": "2025-03",
"fecha_dia": "2025-03-11",
"lat": 40.35911566666667,
"lng": 0.40338,
"zona": "Centro Suburbano",
"address": "Calle Playa",
"resource": "318-7542KBV (IVECO STRALIS 310)",
"matricula": "7542KBV",
"garbage": "Mezcla de residuos municipales",
"containerType": "CONTENEDOR RSU 1.100 TRASERA",
"weight": 30.0,
"area": "SUBURBANO"
},
{
"fecha": "2023-09",
"fecha_dia": "2023-09-01",
"lat": 40.376119333333335,
"lng": 0.4067148333333333,
"zona": "Zona Norte 1",
"address": "Avenida del Papa Luna",
"resource": "318-7542KBV (IVECO )",
"matricula": "7542KBV",
"garbage": "Mezcla de residuos municipales",
"containerType": "CONTENEDOR RSU 800 TRASERA HOTELES",
"weight": 195.0,
"area": ""
},
{
"fecha": "2023-05",
"fecha_dia": "2023-05-01",
"lat": 40.3707115,
"lng": 0.4035515,
"zona": "Zona Norte 1",
"address": "Calle de Madrid",
"resource": "318-7542KBV (IVECO )",
"matricula": "7542KBV",
"garbage": "Mezcla de residuos municipales",
"containerType": "CONTENEDOR RSU 800 TRASERA HOTELES",
"weight": 75.0,
"area": ""
},
{
"fecha": "2024-08",
"fecha_dia": "2024-08-16",
"lat": 40.358241,
"lng": 0.39828616666666666,
"zona": "",
"address": "Calle de Méjico",
"resource": "321-1821KBZ (Lateral)",
"matricula": "1821KBZ",
"garbage": "Mezcla de residuos municipales",
"containerType": "CONTENEDOR RSU 800 TRASERA HOTELES",
"weight": 5.0,
"area": "URMI"
},
{
"fecha": "2024-09",
"fecha_dia": "2024-09-08",
"lat": 40.39734883333333,
"lng": 0.414388,
"zona": "Zona Norte 2",
"address": "Avenida del Papa Lluna",
"resource": "318-7542KBV (IVECO )",
"matricula": "7542KBV",
"garbage": "Mezcla de residuos municipales",
"containerType": "CONTENEDOR RSU 800 TRASERA HOTELES",
"weight": 35.0,
"area": ""
},
{
"fecha": "2025-10",
"fecha_dia": "2025-10-12",
"lat": 40.358599,
"lng": 0.40031683333333334,
"zona": "Centro Suburbano",
"address": "Avenida de Akra Leuke",
"resource": "320-1730KBZ (Lateral)",
"matricula": "1730KBZ",
"garbage": "Mezcla de residuos municipales",
"containerType": "CONTENEDOR RSU 3.200 LATERAL",
"weight": 20.0,
"area": "SUBURBANO"
},
{
"fecha": "2025-12",
"fecha_dia": "2025-12-09",
"lat": 40.359142166666665,
"lng": 0.4047888333333333,
"zona": "Centro Suburbano",
"address": "Avenida del Doctor Don Marcelino Roca",
"resource": "318-7542KBV (IVECO STRALIS 310)",
"matricula": "7542KBV",
"garbage": "Mezcla de residuos municipales",
"containerType": "CONTENEDOR RSU 1.100 TRASERA",
"weight": 120.0,
"area": "SUBURBANO"
},
{
"fecha": "2023-09",
"fecha_dia": "2023-09-01",
"lat": 40.392786666666666,
"lng": 0.41335283333333334,
"zona": "Zona Norte 2",
"address": "Avenida del Papa Luna",
"resource": "318-7542KBV (IVECO )",
"matricula": "7542KBV",
"garbage": "Mezcla de residuos municipales",
"containerType": "CONTENEDOR RSU 1.100 TRASERA",
"weight": 30.0,
"area": ""
},
{
"fecha": "2023-08",
"fecha_dia": "2023-08-28",
"lat": 40.3602435,
"lng": 0.3975543333333333,
"zona": "Llandells - Estacion",
"address": "Avenida de la Estació",
"resource": "320-1730KBZ (Lateral)",
"matricula": "1730KBZ",
"garbage": "Mezcla de residuos municipales",
"containerType": "CONTENEDOR RSU 3.200 LATERAL",
"weight": 30.0,
"area": ""
},
{
"fecha": "2024-10",
"fecha_dia": "2024-10-26",
"lat": 40.359461499999995,
"lng": 0.3957098333333333,
"zona": "Urbanizaciones",
"address": "Calle de la Cova",
"resource": "320-1730KBZ (Lateral)",
"matricula": "1730KBZ",
"garbage": "Mezcla de residuos municipales",
"containerType": "CONTENEDOR RSU 3.200 LATERAL",
"weight": 0.0,
"area": "URMI"
},
{
"fecha": "2022-07",
"fecha_dia": "2022-07-10",
"lat": 40.35814683333333,
"lng": 0.3983488333333333,
"zona": "",
"address": "Calle del Hort",
"resource": "318-7542KBV (IVECO )",
"matricula": "7542KBV",
"garbage": "Mezcla de residuos municipales",
"containerType": "CONTENEDOR RSU 800 TRASERA HOTELES",
"weight": 30.0,
"area": "URMI"
},
{
"fecha": "2025-06",
"fecha_dia": "2025-06-15",
"lat": 40.35910583333334,
"lng": 0.4033545,
"zona": "Centro Suburbano",
"address": "Calle Playa",
"resource": "427-6998MYN (IVECO S-WAY 340 MAZZOCCHIA)",
"matricula": "6998MYN",
"garbage": "Mezcla de residuos municipales",
"containerType": "CONTENEDOR RSU 1.100 TRASERA",
"weight": 270.0,
"area": "SUBURBANO"
},
{
"fecha": "2023-04",
"fecha_dia": "2023-04-22",
"lat": 40.36134933333334,
"lng": 0.3968726666666667,
"zona": "Llandells - Estacion",
"address": "Avenida de la Estació",
"resource": "320-1730KBZ (Lateral)",
"matricula": "1730KBZ",
"garbage": "Mezcla de residuos municipales",
"containerType": "CONTENEDOR RSU 3.200 LATERAL",
"weight": 20.0,
"area": ""
},
{
"fecha": "2024-04",
"fecha_dia": "2024-04-02",
"lat": 40.399128499999996,
"lng": 0.4165081666666667,
"zona": "Zona Norte 2",
"address": "Avenida del Papa Luna",
"resource": "318-7542KBV (IVECO )",
"matricula": "7542KBV",
"garbage": "Mezcla de residuos municipales",
"containerType": "CONTENEDOR RSU 1.100 TRASERA",
"weight": 55.0,
"area": ""
},
{
"fecha": "2023-01",
"fecha_dia": "2023-01-25",
"lat": 40.40518533333333,
"lng": 0.379774,
"zona": "",
"address": "Carretera de Peñíscola a la Estación",
"resource": "320-1730KBZ (Lateral)",
"matricula": "1730KBZ",
"garbage": "Envases mezclados",
"containerType": "",
"weight": 20.0,
"area": ""
},
{
"fecha": "2025-07",
"fecha_dia": "2025-07-29",
"lat": 40.47460433333333,
"lng": 0.47600383333333335,
"zona": "",
"address": "Paseo de Juan de Ribera",
"resource": "310-7809JZX (NISSAN)",
"matricula": "7809JZX",
"garbage": "Mezcla de residuos municipales",
"containerType": "",
"weight": 23.0,
"area": "FUERA TERMINO"
},
{
"fecha": "2024-09",
"fecha_dia": "2024-09-17",
"lat": 40.36313966666667,
"lng": 0.39743733333333336,
"zona": "Llandells - Estacion",
"address": "Calle de Don Antonio Pascual Ferrández",
"resource": "321-1821KBZ (Lateral)",
"matricula": "1821KBZ",
"garbage": "Mezcla de residuos municipales",
"containerType": "CONTENEDOR RSU 2.200 LATERAL",
"weight": 165.0,
"area": "LLANDELLS"
},
{
"fecha": "2025-08",
"fecha_dia": "2025-08-30",
"lat": 40.3642185,
"lng": 0.401196,
"zona": "Zona Norte 1",
"address": "",
"resource": "427-6998MYN (IVECO S-WAY 340 MAZZOCCHIA)",
"matricula": "6998MYN",
"garbage": "Orgánica",
"containerType": "CONTENEDOR ORGÁNICA 800l. HOTELES",
"weight": 45.0,
"area": "HOTEL PAPA LUNA"
},
{
"fecha": "2024-12",
"fecha_dia": "2024-12-10",
"lat": 40.178275500000005,
"lng": -0.034493833333333335,
"zona": "",
"address": "Calle de la Diputació",
"resource": "321-1821KBZ (Lateral)",
"matricula": "1821KBZ",
"garbage": "Mezcla de residuos municipales",
"containerType": "",
"weight": 5.0,
"area": ""
},
{
"fecha": "2025-12",
"fecha_dia": "2025-12-24",
"lat": 40.359932,
"lng": 0.3983095,
"zona": "Llandells - Estacion",
"address": "Calle de San Antonio",
"resource": "318-7542KBV (IVECO STRALIS 310)",
"matricula": "7542KBV",
"garbage": "Mezcla de residuos municipales",
"containerType": "",
"weight": 65.0,
"area": "LLANDELLS"
},
{
"fecha": "2025-03",
"fecha_dia": "2025-03-09",
"lat": 40.33455883333333,
"lng": 0.3664138333333333,
"zona": "Zona Sur",
"address": "Calle de Benicarló",
"resource": "320-1730KBZ (Lateral)",
"matricula": "1730KBZ",
"garbage": "Mezcla de residuos municipales",
"containerType": "CONTENEDOR RSU 2.400 LATERAL",
"weight": 0.0,
"area": "FONT NOVA"
},
{
"fecha": "2023-05",
"fecha_dia": "2023-05-12",
"lat": 40.36741233333333,
"lng": 0.388016,
"zona": "Urbanizaciones",
"address": "Avenida de Irlanda",
"resource": "320-1730KBZ (Lateral)",
"matricula": "1730KBZ",
"garbage": "Mezcla de residuos municipales",
"containerType": "CONTENEDOR RSU 2.400 LATERAL",
"weight": 20.0,
"area": "ATALAYAS"
},
{
"fecha": "2023-03",
"fecha_dia": "2023-03-30",
"lat": 40.383978666666664,
"lng": 0.407089,
"zona": "Zona Norte - Peñísmar",
"address": "Calle de Barcelona",
"resource": "318-7542KBV (IVECO )",
"matricula": "7542KBV",
"garbage": "Mezcla de residuos municipales",
"containerType": "CONTENEDOR RSU 800 TRASERA HOTELES",
"weight": 35.0,
"area": ""
},
{
"fecha": "2025-07",
"fecha_dia": "2025-07-23",
"lat": 40.362494,
"lng": 0.38897583333333335,
"zona": "Urbanizaciones",
"address": "Avenida de Grècia",
"resource": "320-1730KBZ (Lateral)",
"matricula": "1730KBZ",
"garbage": "Mezcla de residuos municipales",
"containerType": "CONTENEDOR RSU 2.400 LATERAL",
"weight": 20.0,
"area": "ATALAYAS"
},
{
"fecha": "2022-07",
"fecha_dia": "2022-07-17",
"lat": 40.37524866666667,
"lng": 0.4063428333333333,
"zona": "Zona Norte 1",
"address": "Calle de Cuenca",
"resource": "321-1821KBZ (Lateral)",
"matricula": "1821KBZ",
"garbage": "Mezcla de residuos municipales",
"containerType": "CONTENEDOR RSU 3.200 LATERAL",
"weight": 30.0,
"area": ""
},
{
"fecha": "2024-09",
"fecha_dia": "2024-09-20",
"lat": 40.383931833333335,
"lng": 0.40708933333333336,
"zona": "Zona Norte - Peñísmar",
"address": "Calle de Barcelona",
"resource": "318-7542KBV (IVECO )",
"matricula": "7542KBV",
"garbage": "Mezcla de residuos municipales",
"containerType": "CONTENEDOR RSU 800 TRASERA HOTELES",
"weight": 145.0,
"area": ""
},
{
"fecha": "2024-02",
"fecha_dia": "2024-02-20",
"lat": 39.88677666666667,
"lng": -0.07966083333333333,
"zona": "",
"address": "Calle de Federico García Lorca",
"resource": "321-1821KBZ (Lateral)",
"matricula": "1821KBZ",
"garbage": "Mezcla de residuos municipales",
"containerType": "",
"weight": 65.0,
"area": ""
},
{
"fecha": "2024-07",
"fecha_dia": "2024-07-02",
"lat": 40.363094833333335,
"lng": 0.3988103333333333,
"zona": "Llandells - Estacion",
"address": "Calle de la Roca",
"resource": "320-1730KBZ (Lateral)",
"matricula": "1730KBZ",
"garbage": "Mezcla de residuos municipales",
"containerType": "CONTENEDOR RSU 2.200 LATERAL",
"weight": 0.0,
"area": "Llandells"
},
{
"fecha": "2024-09",
"fecha_dia": "2024-09-08",
"lat": 40.38397466666667,
"lng": 0.407159,
"zona": "Zona Norte - Peñísmar",
"address": "Calle de Barcelona",
"resource": "318-7542KBV (IVECO )",
"matricula": "7542KBV",
"garbage": "Mezcla de residuos municipales",
"containerType": "CONTENEDOR RSU 800 TRASERA HOTELES",
"weight": 30.0,
"area": ""
},
{
"fecha": "2025-06",
"fecha_dia": "2025-06-18",
"lat": 40.37682233333333,
"lng": 0.3932403333333333,
"zona": "Carretera Estación",
"address": "Camino de Azagador",
"resource": "320-1730KBZ (Lateral)",
"matricula": "1730KBZ",
"garbage": "Mezcla de residuos municipales",
"containerType": "CONTENEDOR RSU 3.200 LATERAL",
"weight": 105.0,
"area": ""
},
{
"fecha": "2025-09",
"fecha_dia": "2025-09-21",
"lat": 40.385111,
"lng": 0.40778349999999997,
"zona": "Zona Norte - Peñísmar",
"address": "Avenida de Cataluña",
"resource": "321-1821KBZ (Lateral)",
"matricula": "1821KBZ",
"garbage": "Mezcla de residuos municipales",
"containerType": "CONTENEDOR RSU 3.200 LATERAL",
"weight": 145.0,
"area": ""
},
{
"fecha": "2024-04",
"fecha_dia": "2024-04-27",
"lat": 40.36421266666667,
"lng": 0.40118149999999997,
"zona": "Zona Norte 1",
"address": "",
"resource": "318-7542KBV (IVECO )",
"matricula": "7542KBV",
"garbage": "Mezcla de residuos municipales",
"containerType": "CONTENEDOR RSU 800 TRASERA HOTELES",
"weight": 30.0,
"area": ""
},